<?xml version="1.0" standalone="yes"?>
<kml xmlns="http://earth.google.com/kml/2.2">
  <Document>
    <Folder id="Waypoints">
      <Placemark>
        <Point>
          <altitudeMode>clampToGround</altitudeMode>
          <coordinates>145.420000000,-37.110000000,0.000</coordinates>
        </Point>
        <description><![CDATA[Murrindindi]]></description>
        <name>Alexandra</name>
        <styleUrl>#gv_waypoint</styleUrl>
      </Placemark>
      <Placemark>
        <Point>
          <altitudeMode>clampToGround</altitudeMode>
          <coordinates>144.500000000,-37.500000000,0.000</coordinates>
        </Point>
        <description><![CDATA[Hobsons Bay]]></description>
        <name>Altona North</name>
        <styleUrl>#gv_waypoint</styleUrl>
      </Placemark>
      <Placemark>
        <Point>
          <altitudeMode>clampToGround</altitudeMode>
          <coordinates>144.110000000,-38.240000000,0.000</coordinates>
        </Point>
        <description><![CDATA[Surf Coast]]></description>
        <name>Anglesea</name>
        <styleUrl>#gv_waypoint</styleUrl>
      </Placemark>
      <Placemark>
        <Point>
          <altitudeMode>clampToGround</altitudeMode>
          <coordinates>143.400000000,-38.450000000,0.000</coordinates>
        </Point>
        <description><![CDATA[Colac-Otway]]></description>
        <name>Apollo Bay</name>
        <styleUrl>#gv_waypoint</styleUrl>
      </Placemark>
      <Placemark>
        <Point>
          <altitudeMode>clampToGround</altitudeMode>
          <coordinates>141.040000000,-36.580000000,0.000</coordinates>
        </Point>
        <description><![CDATA[West Wimmera]]></description>
        <name>Apsley</name>
        <styleUrl>#gv_waypoint</styleUrl>
      </Placemark>
      <Placemark>
        <Point>
          <altitudeMode>clampToGround</altitudeMode>
          <coordinates>142.550000000,-37.170000000,0.000</coordinates>
        </Point>
        <description><![CDATA[Ararat]]></description>
        <name>Ararat</name>
        <styleUrl>#gv_waypoint</styleUrl>
      </Placemark>
      <Placemark>
        <Point>
          <altitudeMode>clampToGround</altitudeMode>
          <coordinates>145.040000000,-37.510000000,0.000</coordinates>
        </Point>
        <description><![CDATA[Boroondara]]></description>
        <name>Ashburton</name>
        <styleUrl>#gv_waypoint</styleUrl>
      </Placemark>
      <Placemark>
        <Point>
          <altitudeMode>clampToGround</altitudeMode>
          <coordinates>143.280000000,-37.050000000,0.000</coordinates>
        </Point>
        <description><![CDATA[Pyrenees]]></description>
        <name>Avoca</name>
        <styleUrl>#gv_waypoint</styleUrl>
      </Placemark>
      <Placemark>
        <Point>
          <altitudeMode>clampToGround</altitudeMode>
          <coordinates>144.510000000,-37.450000000,0.000</coordinates>
        </Point>
        <description><![CDATA[Moonee Valley]]></description>
        <name>Avondale Heights</name>
        <styleUrl>#gv_waypoint</styleUrl>
      </Placemark>
      <Placemark>
        <Point>
          <altitudeMode>clampToGround</altitudeMode>
          <coordinates>144.300000000,-36.470000000,0.000</coordinates>
        </Point>
        <description><![CDATA[Greater Bendigo]]></description>
        <name>Axedale</name>
        <styleUrl>#gv_waypoint</styleUrl>
      </Placemark>
      <Placemark>
        <Point>
          <altitudeMode>clampToGround</altitudeMode>
          <coordinates>144.260000000,-37.400000000,0.000</coordinates>
        </Point>
        <description><![CDATA[Moorabool]]></description>
        <name>Bacchus Marsh</name>
        <styleUrl>#gv_waypoint</styleUrl>
      </Placemark>
      <Placemark>
        <Point>
          <altitudeMode>clampToGround</altitudeMode>
          <coordinates>147.370000000,-37.490000000,0.000</coordinates>
        </Point>
        <description><![CDATA[East Gippsland]]></description>
        <name>Bairnsdale</name>
        <styleUrl>#gv_waypoint</styleUrl>
      </Placemark>
      <Placemark>
        <Point>
          <altitudeMode>clampToGround</altitudeMode>
          <coordinates>144.130000000,-37.360000000,0.000</coordinates>
        </Point>
        <description><![CDATA[Moorabool]]></description>
        <name>Ballan</name>
        <styleUrl>#gv_waypoint</styleUrl>
      </Placemark>
      <Placemark>
        <Point>
          <altitudeMode>clampToGround</altitudeMode>
          <coordinates>143.510000000,-37.330000000,0.000</coordinates>
        </Point>
        <description><![CDATA[Ballarat]]></description>
        <name>Ballarat</name>
        <styleUrl>#gv_waypoint</styleUrl>
      </Placemark>
      <Placemark>
        <Point>
          <altitudeMode>clampToGround</altitudeMode>
          <coordinates>141.500000000,-37.150000000,0.000</coordinates>
        </Point>
        <description><![CDATA[Southern Grampians]]></description>
        <name>Balmoral</name>
        <styleUrl>#gv_waypoint</styleUrl>
      </Placemark>
      <Placemark>
        <Point>
          <altitudeMode>clampToGround</altitudeMode>
          <coordinates>144.100000000,-38.020000000,0.000</coordinates>
        </Point>
        <description><![CDATA[Golden Plains]]></description>
        <name>Bannockburn</name>
        <styleUrl>#gv_waypoint</styleUrl>
      </Placemark>
      <Placemark>
        <Point>
          <altitudeMode>clampToGround</altitudeMode>
          <coordinates>143.220000000,-37.250000000,0.000</coordinates>
        </Point>
        <description><![CDATA[Pyrenees]]></description>
        <name>Beaufort</name>
        <styleUrl>#gv_waypoint</styleUrl>
      </Placemark>
      <Placemark>
        <Point>
          <altitudeMode>clampToGround</altitudeMode>
          <coordinates>143.380000000,-38.110000000,0.000</coordinates>
        </Point>
        <description><![CDATA[Colac-Otway]]></description>
        <name>Beeac</name>
        <styleUrl>#gv_waypoint</styleUrl>
      </Placemark>
      <Placemark>
        <Point>
          <altitudeMode>clampToGround</altitudeMode>
          <coordinates>146.410000000,-36.210000000,0.000</coordinates>
        </Point>
        <description><![CDATA[Indigo]]></description>
        <name>Beechworth</name>
        <styleUrl>#gv_waypoint</styleUrl>
      </Placemark>
      <Placemark>
        <Point>
          <altitudeMode>clampToGround</altitudeMode>
          <coordinates>145.210000000,-37.540000000,0.000</coordinates>
        </Point>
        <description><![CDATA[Yarra Ranges]]></description>
        <name>Belgrave</name>
        <styleUrl>#gv_waypoint</styleUrl>
      </Placemark>
      <Placemark>
        <Point>
          <altitudeMode>clampToGround</altitudeMode>
          <coordinates>144.310000000,-38.160000000,0.000</coordinates>
        </Point>
        <description><![CDATA[Greater Geelong]]></description>
        <name>Bellarine</name>
        <styleUrl>#gv_waypoint</styleUrl>
      </Placemark>
      <Placemark>
        <Point>
          <altitudeMode>clampToGround</altitudeMode>
          <coordinates>145.580000000,-36.330000000,0.000</coordinates>
        </Point>
        <description><![CDATA[Benalla]]></description>
        <name>Benalla</name>
        <styleUrl>#gv_waypoint</styleUrl>
      </Placemark>
      <Placemark>
        <Point>
          <altitudeMode>clampToGround</altitudeMode>
          <coordinates>144.160000000,-36.450000000,0.000</coordinates>
        </Point>
        <description><![CDATA[Greater Bendigo]]></description>
        <name>Bendigo</name>
        <styleUrl>#gv_waypoint</styleUrl>
      </Placemark>
      <Placemark>
        <Point>
          <altitudeMode>clampToGround</altitudeMode>
          <coordinates>148.530000000,-37.080000000,0.000</coordinates>
        </Point>
        <description><![CDATA[East Gippsland]]></description>
        <name>Bendoc</name>
        <styleUrl>#gv_waypoint</styleUrl>
      </Placemark>
      <Placemark>
        <Point>
          <altitudeMode>clampToGround</altitudeMode>
          <coordinates>147.050000000,-36.070000000,0.000</coordinates>
        </Point>
        <description><![CDATA[Towong]]></description>
        <name>Bethanga</name>
        <styleUrl>#gv_waypoint</styleUrl>
      </Placemark>
      <Placemark>
        <Point>
          <altitudeMode>clampToGround</altitudeMode>
          <coordinates>142.250000000,-35.560000000,0.000</coordinates>
        </Point>
        <description><![CDATA[Yarriambiack]]></description>
        <name>Beulah</name>
        <styleUrl>#gv_waypoint</styleUrl>
      </Placemark>
      <Placemark>
        <Point>
          <altitudeMode>clampToGround</altitudeMode>
          <coordinates>142.540000000,-35.580000000,0.000</coordinates>
        </Point>
        <description><![CDATA[Buloke]]></description>
        <name>Birchip</name>
        <styleUrl>#gv_waypoint</styleUrl>
      </Placemark>
      <Placemark>
        <Point>
          <altitudeMode>clampToGround</altitudeMode>
          <coordinates>143.460000000,-38.200000000,0.000</coordinates>
        </Point>
        <description><![CDATA[Colac-Otway]]></description>
        <name>Birregurra</name>
        <styleUrl>#gv_waypoint</styleUrl>
      </Placemark>
      <Placemark>
        <Point>
          <altitudeMode>clampToGround</altitudeMode>
          <coordinates>146.090000000,-38.240000000,0.000</coordinates>
        </Point>
        <description><![CDATA[La Trobe]]></description>
        <name>Boolarra</name>
        <styleUrl>#gv_waypoint</styleUrl>
      </Placemark>
      <Placemark>
        <Point>
          <altitudeMode>clampToGround</altitudeMode>
          <coordinates>143.430000000,-36.070000000,0.000</coordinates>
        </Point>
        <description><![CDATA[Loddon]]></description>
        <name>Boort</name>
        <styleUrl>#gv_waypoint</styleUrl>
      </Placemark>
      <Placemark>
        <Point>
          <altitudeMode>clampToGround</altitudeMode>
          <coordinates>145.170000000,-37.510000000,0.000</coordinates>
        </Point>
        <description><![CDATA[Knox]]></description>
        <name>Boronia</name>
        <styleUrl>#gv_waypoint</styleUrl>
      </Placemark>
      <Placemark>
        <Point>
          <altitudeMode>clampToGround</altitudeMode>
          <coordinates>145.030000000,-37.480000000,0.000</coordinates>
        </Point>
        <description><![CDATA[Boroondara]]></description>
        <name>Boroondara</name>
        <styleUrl>#gv_waypoint</styleUrl>
      </Placemark>
      <Placemark>
        <Point>
          <altitudeMode>clampToGround</altitudeMode>
          <coordinates>145.070000000,-37.490000000,0.000</coordinates>
        </Point>
        <description><![CDATA[Whitehorse]]></description>
        <name>Box Hill</name>
        <styleUrl>#gv_waypoint</styleUrl>
      </Placemark>
      <Placemark>
        <Point>
          <altitudeMode>clampToGround</altitudeMode>
          <coordinates>141.470000000,-37.510000000,0.000</coordinates>
        </Point>
        <description><![CDATA[Southern Grampians]]></description>
        <name>Branxholme</name>
        <styleUrl>#gv_waypoint</styleUrl>
      </Placemark>
      <Placemark>
        <Point>
          <altitudeMode>clampToGround</altitudeMode>
          <coordinates>147.040000000,-37.500000000,0.000</coordinates>
        </Point>
        <description><![CDATA[Wellington]]></description>
        <name>Briagolong</name>
        <styleUrl>#gv_waypoint</styleUrl>
      </Placemark>
      <Placemark>
        <Point>
          <altitudeMode>clampToGround</altitudeMode>
          <coordinates>143.560000000,-36.360000000,0.000</coordinates>
        </Point>
        <description><![CDATA[Loddon]]></description>
        <name>Bridgewater</name>
        <styleUrl>#gv_waypoint</styleUrl>
      </Placemark>
      <Placemark>
        <Point>
          <altitudeMode>clampToGround</altitudeMode>
          <coordinates>146.570000000,-36.440000000,0.000</coordinates>
        </Point>
        <description><![CDATA[Alpine]]></description>
        <name>Bright</name>
        <styleUrl>#gv_waypoint</styleUrl>
      </Placemark>
      <Placemark>
        <Point>
          <altitudeMode>clampToGround</altitudeMode>
          <coordinates>144.590000000,-37.540000000,0.000</coordinates>
        </Point>
        <description><![CDATA[Bayside]]></description>
        <name>Brighton</name>
        <styleUrl>#gv_waypoint</styleUrl>
      </Placemark>
      <Placemark>
        <Point>
          <altitudeMode>clampToGround</altitudeMode>
          <coordinates>145.030000000,-37.120000000,0.000</coordinates>
        </Point>
        <description><![CDATA[Mitchell]]></description>
        <name>Broadford</name>
        <styleUrl>#gv_waypoint</styleUrl>
      </Placemark>
      <Placemark>
        <Point>
          <altitudeMode>clampToGround</altitudeMode>
          <coordinates>144.540000000,-37.410000000,0.000</coordinates>
        </Point>
        <description><![CDATA[Hume]]></description>
        <name>Broadmeadows</name>
        <styleUrl>#gv_waypoint</styleUrl>
      </Placemark>
      <Placemark>
        <Point>
          <altitudeMode>clampToGround</altitudeMode>
          <coordinates>144.570000000,-37.450000000,0.000</coordinates>
        </Point>
        <description><![CDATA[Moreland]]></description>
        <name>Brunswick</name>
        <styleUrl>#gv_waypoint</styleUrl>
      </Placemark>
      <Placemark>
        <Point>
          <altitudeMode>clampToGround</altitudeMode>
          <coordinates>147.490000000,-37.420000000,0.000</coordinates>
        </Point>
        <description><![CDATA[East Gippsland]]></description>
        <name>Bruthen</name>
        <styleUrl>#gv_waypoint</styleUrl>
      </Placemark>
      <Placemark>
        <Point>
          <altitudeMode>clampToGround</altitudeMode>
          <coordinates>148.100000000,-37.300000000,0.000</coordinates>
        </Point>
        <description><![CDATA[East Gippsland]]></description>
        <name>Buchan</name>
        <styleUrl>#gv_waypoint</styleUrl>
      </Placemark>
      <Placemark>
        <Point>
          <altitudeMode>clampToGround</altitudeMode>
          <coordinates>143.530000000,-37.390000000,0.000</coordinates>
        </Point>
        <description><![CDATA[Ballarat]]></description>
        <name>Buninyong</name>
        <styleUrl>#gv_waypoint</styleUrl>
      </Placemark>
      <Placemark>
        <Point>
          <altitudeMode>clampToGround</altitudeMode>
          <coordinates>145.420000000,-38.050000000,0.000</coordinates>
        </Point>
        <description><![CDATA[Cardinia]]></description>
        <name>Bunyip</name>
        <styleUrl>#gv_waypoint</styleUrl>
      </Placemark>
      <Placemark>
        <Point>
          <altitudeMode>clampToGround</altitudeMode>
          <coordinates>145.050000000,-37.510000000,0.000</coordinates>
        </Point>
        <description><![CDATA[Whitehorse]]></description>
        <name>Burwood</name>
        <styleUrl>#gv_waypoint</styleUrl>
      </Placemark>
      <Placemark>
        <Point>
          <altitudeMode>clampToGround</altitudeMode>
          <coordinates>145.030000000,-37.500000000,0.000</coordinates>
        </Point>
        <description><![CDATA[Boroondara]]></description>
        <name>Camberwell</name>
        <styleUrl>#gv_waypoint</styleUrl>
      </Placemark>
      <Placemark>
        <Point>
          <altitudeMode>clampToGround</altitudeMode>
          <coordinates>143.080000000,-38.130000000,0.000</coordinates>
        </Point>
        <description><![CDATA[Corangamite]]></description>
        <name>Camperdown</name>
        <styleUrl>#gv_waypoint</styleUrl>
      </Placemark>
      <Placemark>
        <Point>
          <altitudeMode>clampToGround</altitudeMode>
          <coordinates>149.090000000,-37.340000000,0.000</coordinates>
        </Point>
        <description><![CDATA[East Gippsland]]></description>
        <name>Cann River</name>
        <styleUrl>#gv_waypoint</styleUrl>
      </Placemark>
      <Placemark>
        <Point>
          <altitudeMode>clampToGround</altitudeMode>
          <coordinates>144.580000000,-37.470000000,0.000</coordinates>
        </Point>
        <description><![CDATA[Melbourne]]></description>
        <name>Carlton</name>
        <styleUrl>#gv_waypoint</styleUrl>
      </Placemark>
      <Placemark>
        <Point>
          <altitudeMode>clampToGround</altitudeMode>
          <coordinates>144.440000000,-37.430000000,0.000</coordinates>
        </Point>
        <description><![CDATA[Melton]]></description>
        <name>Caroline Springs</name>
        <styleUrl>#gv_waypoint</styleUrl>
      </Placemark>
      <Placemark>
        <Point>
          <altitudeMode>clampToGround</altitudeMode>
          <coordinates>141.240000000,-37.350000000,0.000</coordinates>
        </Point>
        <description><![CDATA[Glenelg]]></description>
        <name>Casterton</name>
        <styleUrl>#gv_waypoint</styleUrl>
      </Placemark>
      <Placemark>
        <Point>
          <altitudeMode>clampToGround</altitudeMode>
          <coordinates>144.130000000,-37.030000000,0.000</coordinates>
        </Point>
        <description><![CDATA[Mount Alexander]]></description>
        <name>Castlemaine</name>
        <styleUrl>#gv_waypoint</styleUrl>
      </Placemark>
      <Placemark>
        <Point>
          <altitudeMode>clampToGround</altitudeMode>
          <coordinates>145.010000000,-37.520000000,0.000</coordinates>
        </Point>
        <description><![CDATA[Glen Eira]]></description>
        <name>Caulfield</name>
        <styleUrl>#gv_waypoint</styleUrl>
      </Placemark>
      <Placemark>
        <Point>
          <altitudeMode>clampToGround</altitudeMode>
          <coordinates>142.020000000,-37.310000000,0.000</coordinates>
        </Point>
        <description><![CDATA[Southern Grampians]]></description>
        <name>Cavendish</name>
        <styleUrl>#gv_waypoint</styleUrl>
      </Placemark>
      <Placemark>
        <Point>
          <altitudeMode>clampToGround</altitudeMode>
          <coordinates>143.200000000,-36.160000000,0.000</coordinates>
        </Point>
        <description><![CDATA[Buloke]]></description>
        <name>Charlton</name>
        <styleUrl>#gv_waypoint</styleUrl>
      </Placemark>
      <Placemark>
        <Point>
          <altitudeMode>clampToGround</altitudeMode>
          <coordinates>145.060000000,-38.030000000,0.000</coordinates>
        </Point>
        <description><![CDATA[Kingston]]></description>
        <name>Chelsea</name>
        <styleUrl>#gv_waypoint</styleUrl>
      </Placemark>
      <Placemark>
        <Point>
          <altitudeMode>clampToGround</altitudeMode>
          <coordinates>145.030000000,-37.580000000,0.000</coordinates>
        </Point>
        <description><![CDATA[Kingston]]></description>
        <name>Cheltenham</name>
        <styleUrl>#gv_waypoint</styleUrl>
      </Placemark>
      <Placemark>
        <Point>
          <altitudeMode>clampToGround</altitudeMode>
          <coordinates>146.360000000,-36.080000000,0.000</coordinates>
        </Point>
        <description><![CDATA[Indigo]]></description>
        <name>Chiltern</name>
        <styleUrl>#gv_waypoint</styleUrl>
      </Placemark>
      <Placemark>
        <Point>
          <altitudeMode>clampToGround</altitudeMode>
          <coordinates>146.240000000,-38.180000000,0.000</coordinates>
        </Point>
        <description><![CDATA[La Trobe]]></description>
        <name>Churchill</name>
        <styleUrl>#gv_waypoint</styleUrl>
      </Placemark>
      <Placemark>
        <Point>
          <altitudeMode>clampToGround</altitudeMode>
          <coordinates>145.070000000,-37.550000000,0.000</coordinates>
        </Point>
        <description><![CDATA[Monash]]></description>
        <name>Clayton</name>
        <styleUrl>#gv_waypoint</styleUrl>
      </Placemark>
      <Placemark>
        <Point>
          <altitudeMode>clampToGround</altitudeMode>
          <coordinates>143.460000000,-37.170000000,0.000</coordinates>
        </Point>
        <description><![CDATA[Hepburn]]></description>
        <name>Clunes</name>
        <styleUrl>#gv_waypoint</styleUrl>
      </Placemark>
      <Placemark>
        <Point>
          <altitudeMode>clampToGround</altitudeMode>
          <coordinates>143.040000000,-38.190000000,0.000</coordinates>
        </Point>
        <description><![CDATA[Corangamite]]></description>
        <name>Cobden</name>
        <styleUrl>#gv_waypoint</styleUrl>
      </Placemark>
      <Placemark>
        <Point>
          <altitudeMode>clampToGround</altitudeMode>
          <coordinates>145.390000000,-35.550000000,0.000</coordinates>
        </Point>
        <description><![CDATA[Moira]]></description>
        <name>Cobram</name>
        <styleUrl>#gv_waypoint</styleUrl>
      </Placemark>
      <Placemark>
        <Point>
          <altitudeMode>clampToGround</altitudeMode>
          <coordinates>144.130000000,-35.480000000,0.000</coordinates>
        </Point>
        <description><![CDATA[Gannawarra]]></description>
        <name>Cohuna</name>
        <styleUrl>#gv_waypoint</styleUrl>
      </Placemark>
      <Placemark>
        <Point>
          <altitudeMode>clampToGround</altitudeMode>
          <coordinates>143.350000000,-38.200000000,0.000</coordinates>
        </Point>
        <description><![CDATA[Colac-Otway]]></description>
        <name>Colac</name>
        <styleUrl>#gv_waypoint</styleUrl>
      </Placemark>
      <Placemark>
        <Point>
          <altitudeMode>clampToGround</altitudeMode>
          <coordinates>141.410000000,-37.360000000,0.000</coordinates>
        </Point>
        <description><![CDATA[Southern Grampians]]></description>
        <name>Coleraine</name>
        <styleUrl>#gv_waypoint</styleUrl>
      </Placemark>
      <Placemark>
        <Point>
          <altitudeMode>clampToGround</altitudeMode>
          <coordinates>144.590000000,-37.480000000,0.000</coordinates>
        </Point>
        <description><![CDATA[Yarra]]></description>
        <name>Collingwood</name>
        <styleUrl>#gv_waypoint</styleUrl>
      </Placemark>
      <Placemark>
        <Point>
          <altitudeMode>clampToGround</altitudeMode>
          <coordinates>144.210000000,-38.040000000,0.000</coordinates>
        </Point>
        <description><![CDATA[Greater Geelong]]></description>
        <name>Corio</name>
        <styleUrl>#gv_waypoint</styleUrl>
      </Placemark>
      <Placemark>
        <Point>
          <altitudeMode>clampToGround</altitudeMode>
          <coordinates>147.550000000,-36.110000000,0.000</coordinates>
        </Point>
        <description><![CDATA[Towong]]></description>
        <name>Corryong</name>
        <styleUrl>#gv_waypoint</styleUrl>
      </Placemark>
      <Placemark>
        <Point>
          <altitudeMode>clampToGround</altitudeMode>
          <coordinates>145.140000000,-38.270000000,0.000</coordinates>
        </Point>
        <description><![CDATA[Bass Coast]]></description>
        <name>Cowes</name>
        <styleUrl>#gv_waypoint</styleUrl>
      </Placemark>
      <Placemark>
        <Point>
          <altitudeMode>clampToGround</altitudeMode>
          <coordinates>144.550000000,-37.360000000,0.000</coordinates>
        </Point>
        <description><![CDATA[Hume]]></description>
        <name>Craigieburn</name>
        <styleUrl>#gv_waypoint</styleUrl>
      </Placemark>
      <Placemark>
        <Point>
          <altitudeMode>clampToGround</altitudeMode>
          <coordinates>145.160000000,-38.060000000,0.000</coordinates>
        </Point>
        <description><![CDATA[Casey]]></description>
        <name>Cranbourne</name>
        <styleUrl>#gv_waypoint</styleUrl>
      </Placemark>
      <Placemark>
        <Point>
          <altitudeMode>clampToGround</altitudeMode>
          <coordinates>143.370000000,-38.010000000,0.000</coordinates>
        </Point>
        <description><![CDATA[Colac-Otway]]></description>
        <name>Cressy</name>
        <styleUrl>#gv_waypoint</styleUrl>
      </Placemark>
      <Placemark>
        <Point>
          <altitudeMode>clampToGround</altitudeMode>
          <coordinates>143.530000000,-37.250000000,0.000</coordinates>
        </Point>
        <description><![CDATA[Hepburn]]></description>
        <name>Creswick</name>
        <styleUrl>#gv_waypoint</styleUrl>
      </Placemark>
      <Placemark>
        <Point>
          <altitudeMode>clampToGround</altitudeMode>
          <coordinates>145.160000000,-37.480000000,0.000</coordinates>
        </Point>
        <description><![CDATA[Maroondah]]></description>
        <name>Croydon</name>
        <styleUrl>#gv_waypoint</styleUrl>
      </Placemark>
      <Placemark>
        <Point>
          <altitudeMode>clampToGround</altitudeMode>
          <coordinates>143.060000000,-35.430000000,0.000</coordinates>
        </Point>
        <description><![CDATA[Buloke]]></description>
        <name>Culgoa</name>
        <styleUrl>#gv_waypoint</styleUrl>
      </Placemark>
      <Placemark>
        <Point>
          <altitudeMode>clampToGround</altitudeMode>
          <coordinates>145.130000000,-37.590000000,0.000</coordinates>
        </Point>
        <description><![CDATA[Greater Dandenong]]></description>
        <name>Dandenong</name>
        <styleUrl>#gv_waypoint</styleUrl>
      </Placemark>
      <Placemark>
        <Point>
          <altitudeMode>clampToGround</altitudeMode>
          <coordinates>141.160000000,-37.550000000,0.000</coordinates>
        </Point>
        <description><![CDATA[Glenelg]]></description>
        <name>Dartmoor</name>
        <styleUrl>#gv_waypoint</styleUrl>
      </Placemark>
      <Placemark>
        <Point>
          <altitudeMode>clampToGround</altitudeMode>
          <coordinates>144.080000000,-37.200000000,0.000</coordinates>
        </Point>
        <description><![CDATA[Hepburn]]></description>
        <name>Daylesford</name>
        <styleUrl>#gv_waypoint</styleUrl>
      </Placemark>
      <Placemark>
        <Point>
          <altitudeMode>clampToGround</altitudeMode>
          <coordinates>147.010000000,-36.290000000,0.000</coordinates>
        </Point>
        <description><![CDATA[Alpine]]></description>
        <name>Dederang</name>
        <styleUrl>#gv_waypoint</styleUrl>
      </Placemark>
      <Placemark>
        <Point>
          <altitudeMode>clampToGround</altitudeMode>
          <coordinates>145.090000000,-37.400000000,0.000</coordinates>
        </Point>
        <description><![CDATA[Nillumbik]]></description>
        <name>Diamond Creek</name>
        <styleUrl>#gv_waypoint</styleUrl>
      </Placemark>
      <Placemark>
        <Point>
          <altitudeMode>clampToGround</altitudeMode>
          <coordinates>142.010000000,-36.270000000,0.000</coordinates>
        </Point>
        <description><![CDATA[Hindmarsh]]></description>
        <name>Dimboola</name>
        <styleUrl>#gv_waypoint</styleUrl>
      </Placemark>
      <Placemark>
        <Point>
          <altitudeMode>clampToGround</altitudeMode>
          <coordinates>142.580000000,-36.220000000,0.000</coordinates>
        </Point>
        <description><![CDATA[Buloke]]></description>
        <name>Donald</name>
        <styleUrl>#gv_waypoint</styleUrl>
      </Placemark>
      <Placemark>
        <Point>
          <altitudeMode>clampToGround</altitudeMode>
          <coordinates>145.090000000,-37.470000000,0.000</coordinates>
        </Point>
        <description><![CDATA[Manningham]]></description>
        <name>Doncaster</name>
        <styleUrl>#gv_waypoint</styleUrl>
      </Placemark>
      <Placemark>
        <Point>
          <altitudeMode>clampToGround</altitudeMode>
          <coordinates>145.410000000,-36.190000000,0.000</coordinates>
        </Point>
        <description><![CDATA[Greater Shepparton]]></description>
        <name>Dookie</name>
        <styleUrl>#gv_waypoint</styleUrl>
      </Placemark>
      <Placemark>
        <Point>
          <altitudeMode>clampToGround</altitudeMode>
          <coordinates>144.570000000,-38.200000000,0.000</coordinates>
        </Point>
        <description><![CDATA[Mornington Peninsula]]></description>
        <name>Dromana</name>
        <styleUrl>#gv_waypoint</styleUrl>
      </Placemark>
      <Placemark>
        <Point>
          <altitudeMode>clampToGround</altitudeMode>
          <coordinates>145.500000000,-38.070000000,0.000</coordinates>
        </Point>
        <description><![CDATA[Baw Baw]]></description>
        <name>Drouin</name>
        <styleUrl>#gv_waypoint</styleUrl>
      </Placemark>
      <Placemark>
        <Point>
          <altitudeMode>clampToGround</altitudeMode>
          <coordinates>144.340000000,-38.100000000,0.000</coordinates>
        </Point>
        <description><![CDATA[Greater Geelong]]></description>
        <name>Drysdale</name>
        <styleUrl>#gv_waypoint</styleUrl>
      </Placemark>
      <Placemark>
        <Point>
          <altitudeMode>clampToGround</altitudeMode>
          <coordinates>142.200000000,-37.390000000,0.000</coordinates>
        </Point>
        <description><![CDATA[Southern Grampians]]></description>
        <name>Dunkeld</name>
        <styleUrl>#gv_waypoint</styleUrl>
      </Placemark>
      <Placemark>
        <Point>
          <altitudeMode>clampToGround</altitudeMode>
          <coordinates>143.430000000,-36.510000000,0.000</coordinates>
        </Point>
        <description><![CDATA[Central Goldfields]]></description>
        <name>Dunolly</name>
        <styleUrl>#gv_waypoint</styleUrl>
      </Placemark>
      <Placemark>
        <Point>
          <altitudeMode>clampToGround</altitudeMode>
          <coordinates>144.150000000,-36.430000000,0.000</coordinates>
        </Point>
        <description><![CDATA[Greater Bendigo]]></description>
        <name>Eaglehawk</name>
        <styleUrl>#gv_waypoint</styleUrl>
      </Placemark>
      <Placemark>
        <Point>
          <altitudeMode>clampToGround</altitudeMode>
          <coordinates>144.440000000,-36.070000000,0.000</coordinates>
        </Point>
        <description><![CDATA[Campaspe]]></description>
        <name>Echuca</name>
        <styleUrl>#gv_waypoint</styleUrl>
      </Placemark>
      <Placemark>
        <Point>
          <altitudeMode>clampToGround</altitudeMode>
          <coordinates>141.170000000,-37.020000000,0.000</coordinates>
        </Point>
        <description><![CDATA[West Wimmera]]></description>
        <name>Edenhope</name>
        <styleUrl>#gv_waypoint</styleUrl>
      </Placemark>
      <Placemark>
        <Point>
          <altitudeMode>clampToGround</altitudeMode>
          <coordinates>145.540000000,-37.140000000,0.000</coordinates>
        </Point>
        <description><![CDATA[Murrindindi]]></description>
        <name>Eildon</name>
        <styleUrl>#gv_waypoint</styleUrl>
      </Placemark>
      <Placemark>
        <Point>
          <altitudeMode>clampToGround</altitudeMode>
          <coordinates>143.140000000,-37.100000000,0.000</coordinates>
        </Point>
        <description><![CDATA[Ararat]]></description>
        <name>Elmhurst</name>
        <styleUrl>#gv_waypoint</styleUrl>
      </Placemark>
      <Placemark>
        <Point>
          <altitudeMode>clampToGround</altitudeMode>
          <coordinates>144.360000000,-36.290000000,0.000</coordinates>
        </Point>
        <description><![CDATA[Greater Bendigo]]></description>
        <name>Elmore</name>
        <styleUrl>#gv_waypoint</styleUrl>
      </Placemark>
      <Placemark>
        <Point>
          <altitudeMode>clampToGround</altitudeMode>
          <coordinates>145.080000000,-37.430000000,0.000</coordinates>
        </Point>
        <description><![CDATA[Nillumbik]]></description>
        <name>Eltham</name>
        <styleUrl>#gv_waypoint</styleUrl>
      </Placemark>
      <Placemark>
        <Point>
          <altitudeMode>clampToGround</altitudeMode>
          <coordinates>145.260000000,-37.560000000,0.000</coordinates>
        </Point>
        <description><![CDATA[Cardinia]]></description>
        <name>Emerald</name>
        <styleUrl>#gv_waypoint</styleUrl>
      </Placemark>
      <Placemark>
        <Point>
          <altitudeMode>clampToGround</altitudeMode>
          <coordinates>145.150000000,-37.580000000,0.000</coordinates>
        </Point>
        <description><![CDATA[Casey]]></description>
        <name>Endeavour Hills</name>
        <styleUrl>#gv_waypoint</styleUrl>
      </Placemark>
      <Placemark>
        <Point>
          <altitudeMode>clampToGround</altitudeMode>
          <coordinates>145.010000000,-37.380000000,0.000</coordinates>
        </Point>
        <description><![CDATA[Whittlesea]]></description>
        <name>Epping</name>
        <styleUrl>#gv_waypoint</styleUrl>
      </Placemark>
      <Placemark>
        <Point>
          <altitudeMode>clampToGround</altitudeMode>
          <coordinates>145.340000000,-36.450000000,0.000</coordinates>
        </Point>
        <description><![CDATA[Strathbogie]]></description>
        <name>Euroa</name>
        <styleUrl>#gv_waypoint</styleUrl>
      </Placemark>
      <Placemark>
        <Point>
          <altitudeMode>clampToGround</altitudeMode>
          <coordinates>147.160000000,-36.510000000,0.000</coordinates>
        </Point>
        <description><![CDATA[Alpine]]></description>
        <name>Falls Creek</name>
        <styleUrl>#gv_waypoint</styleUrl>
      </Placemark>
      <Placemark>
        <Point>
          <altitudeMode>clampToGround</altitudeMode>
          <coordinates>144.570000000,-37.430000000,0.000</coordinates>
        </Point>
        <description><![CDATA[Moreland]]></description>
        <name>Fawkner</name>
        <styleUrl>#gv_waypoint</styleUrl>
      </Placemark>
      <Placemark>
        <Point>
          <altitudeMode>clampToGround</altitudeMode>
          <coordinates>144.580000000,-37.480000000,0.000</coordinates>
        </Point>
        <description><![CDATA[Yarra]]></description>
        <name>Fitzroy</name>
        <styleUrl>#gv_waypoint</styleUrl>
      </Placemark>
      <Placemark>
        <Point>
          <altitudeMode>clampToGround</altitudeMode>
          <coordinates>144.550000000,-37.470000000,0.000</coordinates>
        </Point>
        <description><![CDATA[Moonee Valley]]></description>
        <name>Flemington</name>
        <styleUrl>#gv_waypoint</styleUrl>
      </Placemark>
      <Placemark>
        <Point>
          <altitudeMode>clampToGround</altitudeMode>
          <coordinates>144.530000000,-37.480000000,0.000</coordinates>
        </Point>
        <description><![CDATA[Maribyrnong]]></description>
        <name>Footscray</name>
        <styleUrl>#gv_waypoint</styleUrl>
      </Placemark>
      <Placemark>
        <Point>
          <altitudeMode>clampToGround</altitudeMode>
          <coordinates>143.420000000,-38.310000000,0.000</coordinates>
        </Point>
        <description><![CDATA[Colac-Otway]]></description>
        <name>Forrest</name>
        <styleUrl>#gv_waypoint</styleUrl>
      </Placemark>
      <Placemark>
        <Point>
          <altitudeMode>clampToGround</altitudeMode>
          <coordinates>146.120000000,-38.390000000,0.000</coordinates>
        </Point>
        <description><![CDATA[South Gippsland]]></description>
        <name>Foster</name>
        <styleUrl>#gv_waypoint</styleUrl>
      </Placemark>
      <Placemark>
        <Point>
          <altitudeMode>clampToGround</altitudeMode>
          <coordinates>145.070000000,-38.080000000,0.000</coordinates>
        </Point>
        <description><![CDATA[Frankston]]></description>
        <name>Frankston</name>
        <styleUrl>#gv_waypoint</styleUrl>
      </Placemark>
      <Placemark>
        <Point>
          <altitudeMode>clampToGround</altitudeMode>
          <coordinates>144.210000000,-38.080000000,0.000</coordinates>
        </Point>
        <description><![CDATA[Greater Geelong]]></description>
        <name>Geelong</name>
        <styleUrl>#gv_waypoint</styleUrl>
      </Placemark>
      <Placemark>
        <Point>
          <altitudeMode>clampToGround</altitudeMode>
          <coordinates>144.350000000,-37.290000000,0.000</coordinates>
        </Point>
        <description><![CDATA[Macedon Ranges]]></description>
        <name>Gisborne</name>
        <styleUrl>#gv_waypoint</styleUrl>
      </Placemark>
      <Placemark>
        <Point>
          <altitudeMode>clampToGround</altitudeMode>
          <coordinates>145.090000000,-37.540000000,0.000</coordinates>
        </Point>
        <description><![CDATA[Monash]]></description>
        <name>Glen Waverley</name>
        <styleUrl>#gv_waypoint</styleUrl>
      </Placemark>
      <Placemark>
        <Point>
          <altitudeMode>clampToGround</altitudeMode>
          <coordinates>146.130000000,-36.270000000,0.000</coordinates>
        </Point>
        <description><![CDATA[Wangaratta]]></description>
        <name>Glenrowan</name>
        <styleUrl>#gv_waypoint</styleUrl>
      </Placemark>
      <Placemark>
        <Point>
          <altitudeMode>clampToGround</altitudeMode>
          <coordinates>144.300000000,-36.360000000,0.000</coordinates>
        </Point>
        <description><![CDATA[Greater Bendigo]]></description>
        <name>Goornong</name>
        <styleUrl>#gv_waypoint</styleUrl>
      </Placemark>
      <Placemark>
        <Point>
          <altitudeMode>clampToGround</altitudeMode>
          <coordinates>144.060000000,-37.340000000,0.000</coordinates>
        </Point>
        <description><![CDATA[Moorabool]]></description>
        <name>Gordon</name>
        <styleUrl>#gv_waypoint</styleUrl>
      </Placemark>
      <Placemark>
        <Point>
          <altitudeMode>clampToGround</altitudeMode>
          <coordinates>141.280000000,-36.430000000,0.000</coordinates>
        </Point>
        <description><![CDATA[West Wimmera]]></description>
        <name>Goroke</name>
        <styleUrl>#gv_waypoint</styleUrl>
      </Placemark>
      <Placemark>
        <Point>
          <altitudeMode>clampToGround</altitudeMode>
          <coordinates>145.050000000,-37.420000000,0.000</coordinates>
        </Point>
        <description><![CDATA[Banyule]]></description>
        <name>Greensborough</name>
        <styleUrl>#gv_waypoint</styleUrl>
      </Placemark>
      <Placemark>
        <Point>
          <altitudeMode>clampToGround</altitudeMode>
          <coordinates>144.210000000,-35.570000000,0.000</coordinates>
        </Point>
        <description><![CDATA[Campaspe]]></description>
        <name>Gunbower</name>
        <styleUrl>#gv_waypoint</styleUrl>
      </Placemark>
      <Placemark>
        <Point>
          <altitudeMode>clampToGround</altitudeMode>
          <coordinates>142.310000000,-37.080000000,0.000</coordinates>
        </Point>
        <description><![CDATA[Northern Grampians]]></description>
        <name>Halls Gap</name>
        <styleUrl>#gv_waypoint</styleUrl>
      </Placemark>
      <Placemark>
        <Point>
          <altitudeMode>clampToGround</altitudeMode>
          <coordinates>142.010000000,-37.440000000,0.000</coordinates>
        </Point>
        <description><![CDATA[Southern Grampians]]></description>
        <name>Hamilton</name>
        <styleUrl>#gv_waypoint</styleUrl>
      </Placemark>
      <Placemark>
        <Point>
          <altitudeMode>clampToGround</altitudeMode>
          <coordinates>141.350000000,-37.090000000,0.000</coordinates>
        </Point>
        <description><![CDATA[West Wimmera]]></description>
        <name>Harrow</name>
        <styleUrl>#gv_waypoint</styleUrl>
      </Placemark>
      <Placemark>
        <Point>
          <altitudeMode>clampToGround</altitudeMode>
          <coordinates>145.110000000,-38.180000000,0.000</coordinates>
        </Point>
        <description><![CDATA[Mornington Peninsula]]></description>
        <name>Hastings</name>
        <styleUrl>#gv_waypoint</styleUrl>
      </Placemark>
      <Placemark>
        <Point>
          <altitudeMode>clampToGround</altitudeMode>
          <coordinates>145.300000000,-37.390000000,0.000</coordinates>
        </Point>
        <description><![CDATA[Yarra Ranges]]></description>
        <name>Healesville</name>
        <styleUrl>#gv_waypoint</styleUrl>
      </Placemark>
      <Placemark>
        <Point>
          <altitudeMode>clampToGround</altitudeMode>
          <coordinates>144.420000000,-36.550000000,0.000</coordinates>
        </Point>
        <description><![CDATA[Greater Bendigo]]></description>
        <name>Heathcote</name>
        <styleUrl>#gv_waypoint</styleUrl>
      </Placemark>
      <Placemark>
        <Point>
          <altitudeMode>clampToGround</altitudeMode>
          <coordinates>145.040000000,-37.450000000,0.000</coordinates>
        </Point>
        <description><![CDATA[Banyule]]></description>
        <name>Heidelberg</name>
        <styleUrl>#gv_waypoint</styleUrl>
      </Placemark>
      <Placemark>
        <Point>
          <altitudeMode>clampToGround</altitudeMode>
          <coordinates>145.020000000,-37.440000000,0.000</coordinates>
        </Point>
        <description><![CDATA[Banyule]]></description>
        <name>Heidelberg West</name>
        <styleUrl>#gv_waypoint</styleUrl>
      </Placemark>
      <Placemark>
        <Point>
          <altitudeMode>clampToGround</altitudeMode>
          <coordinates>146.470000000,-37.580000000,0.000</coordinates>
        </Point>
        <description><![CDATA[Wellington]]></description>
        <name>Heyfield</name>
        <styleUrl>#gv_waypoint</styleUrl>
      </Placemark>
      <Placemark>
        <Point>
          <altitudeMode>clampToGround</altitudeMode>
          <coordinates>141.370000000,-38.080000000,0.000</coordinates>
        </Point>
        <description><![CDATA[Glenelg]]></description>
        <name>Heywood</name>
        <styleUrl>#gv_waypoint</styleUrl>
      </Placemark>
      <Placemark>
        <Point>
          <altitudeMode>clampToGround</altitudeMode>
          <coordinates>142.210000000,-35.430000000,0.000</coordinates>
        </Point>
        <description><![CDATA[Yarriambiack]]></description>
        <name>Hopetoun</name>
        <styleUrl>#gv_waypoint</styleUrl>
      </Placemark>
      <Placemark>
        <Point>
          <altitudeMode>clampToGround</altitudeMode>
          <coordinates>142.110000000,-36.420000000,0.000</coordinates>
        </Point>
        <description><![CDATA[Horsham]]></description>
        <name>Horsham</name>
        <styleUrl>#gv_waypoint</styleUrl>
      </Placemark>
      <Placemark>
        <Point>
          <altitudeMode>clampToGround</altitudeMode>
          <coordinates>145.110000000,-37.380000000,0.000</coordinates>
        </Point>
        <description><![CDATA[Nillumbik]]></description>
        <name>Hurstbridge</name>
        <styleUrl>#gv_waypoint</styleUrl>
      </Placemark>
      <Placemark>
        <Point>
          <altitudeMode>clampToGround</altitudeMode>
          <coordinates>143.520000000,-36.340000000,0.000</coordinates>
        </Point>
        <description><![CDATA[Loddon]]></description>
        <name>Inglewood</name>
        <styleUrl>#gv_waypoint</styleUrl>
      </Placemark>
      <Placemark>
        <Point>
          <altitudeMode>clampToGround</altitudeMode>
          <coordinates>144.020000000,-38.060000000,0.000</coordinates>
        </Point>
        <description><![CDATA[Golden Plains]]></description>
        <name>Inverleigh</name>
        <styleUrl>#gv_waypoint</styleUrl>
      </Placemark>
      <Placemark>
        <Point>
          <altitudeMode>clampToGround</altitudeMode>
          <coordinates>145.430000000,-38.370000000,0.000</coordinates>
        </Point>
        <description><![CDATA[Bass Coast]]></description>
        <name>Inverloch</name>
        <styleUrl>#gv_waypoint</styleUrl>
      </Placemark>
      <Placemark>
        <Point>
          <altitudeMode>clampToGround</altitudeMode>
          <coordinates>146.080000000,-37.180000000,0.000</coordinates>
        </Point>
        <description><![CDATA[Mansfield]]></description>
        <name>Jamieson</name>
        <styleUrl>#gv_waypoint</styleUrl>
      </Placemark>
      <Placemark>
        <Point>
          <altitudeMode>clampToGround</altitudeMode>
          <coordinates>141.590000000,-36.080000000,0.000</coordinates>
        </Point>
        <description><![CDATA[Hindmarsh]]></description>
        <name>Jeparit</name>
        <styleUrl>#gv_waypoint</styleUrl>
      </Placemark>
      <Placemark>
        <Point>
          <altitudeMode>clampToGround</altitudeMode>
          <coordinates>141.140000000,-36.220000000,0.000</coordinates>
        </Point>
        <description><![CDATA[West Wimmera]]></description>
        <name>Kaniva</name>
        <styleUrl>#gv_waypoint</styleUrl>
      </Placemark>
      <Placemark>
        <Point>
          <altitudeMode>clampToGround</altitudeMode>
          <coordinates>145.410000000,-36.040000000,0.000</coordinates>
        </Point>
        <description><![CDATA[Moira]]></description>
        <name>Katamatite</name>
        <styleUrl>#gv_waypoint</styleUrl>
      </Placemark>
      <Placemark>
        <Point>
          <altitudeMode>clampToGround</altitudeMode>
          <coordinates>144.480000000,-37.430000000,0.000</coordinates>
        </Point>
        <description><![CDATA[Brimbank]]></description>
        <name>Keilor Downs</name>
        <styleUrl>#gv_waypoint</styleUrl>
      </Placemark>
      <Placemark>
        <Point>
          <altitudeMode>clampToGround</altitudeMode>
          <coordinates>143.550000000,-35.440000000,0.000</coordinates>
        </Point>
        <description><![CDATA[Gannawarra]]></description>
        <name>Kerang</name>
        <styleUrl>#gv_waypoint</styleUrl>
      </Placemark>
      <Placemark>
        <Point>
          <altitudeMode>clampToGround</altitudeMode>
          <coordinates>144.560000000,-37.180000000,0.000</coordinates>
        </Point>
        <description><![CDATA[Mitchell]]></description>
        <name>Kilmore</name>
        <styleUrl>#gv_waypoint</styleUrl>
      </Placemark>
      <Placemark>
        <Point>
          <altitudeMode>clampToGround</altitudeMode>
          <coordinates>145.200000000,-37.310000000,0.000</coordinates>
        </Point>
        <description><![CDATA[Murrindindi]]></description>
        <name>Kinglake</name>
        <styleUrl>#gv_waypoint</styleUrl>
      </Placemark>
      <Placemark>
        <Point>
          <altitudeMode>clampToGround</altitudeMode>
          <coordinates>145.140000000,-37.520000000,0.000</coordinates>
        </Point>
        <description><![CDATA[Knox]]></description>
        <name>Knox</name>
        <styleUrl>#gv_waypoint</styleUrl>
      </Placemark>
      <Placemark>
        <Point>
          <altitudeMode>clampToGround</altitudeMode>
          <coordinates>145.290000000,-38.120000000,0.000</coordinates>
        </Point>
        <description><![CDATA[Cardinia]]></description>
        <name>Koo Wee Rup</name>
        <styleUrl>#gv_waypoint</styleUrl>
      </Placemark>
      <Placemark>
        <Point>
          <altitudeMode>clampToGround</altitudeMode>
          <coordinates>144.070000000,-35.380000000,0.000</coordinates>
        </Point>
        <description><![CDATA[Gannawarra]]></description>
        <name>Koondrook</name>
        <styleUrl>#gv_waypoint</styleUrl>
      </Placemark>
      <Placemark>
        <Point>
          <altitudeMode>clampToGround</altitudeMode>
          <coordinates>142.210000000,-38.170000000,0.000</coordinates>
        </Point>
        <description><![CDATA[Moyne]]></description>
        <name>Koroit</name>
        <styleUrl>#gv_waypoint</styleUrl>
      </Placemark>
      <Placemark>
        <Point>
          <altitudeMode>clampToGround</altitudeMode>
          <coordinates>145.490000000,-38.260000000,0.000</coordinates>
        </Point>
        <description><![CDATA[South Gippsland]]></description>
        <name>Korumburra</name>
        <styleUrl>#gv_waypoint</styleUrl>
      </Placemark>
      <Placemark>
        <Point>
          <altitudeMode>clampToGround</altitudeMode>
          <coordinates>145.030000000,-36.180000000,0.000</coordinates>
        </Point>
        <description><![CDATA[Campaspe]]></description>
        <name>Kyabram</name>
        <styleUrl>#gv_waypoint</styleUrl>
      </Placemark>
      <Placemark>
        <Point>
          <altitudeMode>clampToGround</altitudeMode>
          <coordinates>144.270000000,-37.140000000,0.000</coordinates>
        </Point>
        <description><![CDATA[Macedon Ranges]]></description>
        <name>Kyneton</name>
        <styleUrl>#gv_waypoint</styleUrl>
      </Placemark>
      <Placemark>
        <Point>
          <altitudeMode>clampToGround</altitudeMode>
          <coordinates>143.370000000,-35.270000000,0.000</coordinates>
        </Point>
        <description><![CDATA[Swan Hill]]></description>
        <name>Lake Boga</name>
        <styleUrl>#gv_waypoint</styleUrl>
      </Placemark>
      <Placemark>
        <Point>
          <altitudeMode>clampToGround</altitudeMode>
          <coordinates>142.500000000,-37.420000000,0.000</coordinates>
        </Point>
        <description><![CDATA[Ararat]]></description>
        <name>Lake Bolac</name>
        <styleUrl>#gv_waypoint</styleUrl>
      </Placemark>
      <Placemark>
        <Point>
          <altitudeMode>clampToGround</altitudeMode>
          <coordinates>147.590000000,-37.520000000,0.000</coordinates>
        </Point>
        <description><![CDATA[East Gippsland]]></description>
        <name>Lakes Entrance</name>
        <styleUrl>#gv_waypoint</styleUrl>
      </Placemark>
      <Placemark>
        <Point>
          <altitudeMode>clampToGround</altitudeMode>
          <coordinates>144.440000000,-37.160000000,0.000</coordinates>
        </Point>
        <description><![CDATA[Macedon Ranges]]></description>
        <name>Lancefield</name>
        <styleUrl>#gv_waypoint</styleUrl>
      </Placemark>
      <Placemark>
        <Point>
          <altitudeMode>clampToGround</altitudeMode>
          <coordinates>143.080000000,-37.000000000,0.000</coordinates>
        </Point>
        <description><![CDATA[Pyrenees]]></description>
        <name>Landsborough</name>
        <styleUrl>#gv_waypoint</styleUrl>
      </Placemark>
      <Placemark>
        <Point>
          <altitudeMode>clampToGround</altitudeMode>
          <coordinates>145.330000000,-38.160000000,0.000</coordinates>
        </Point>
        <description><![CDATA[Cardinia]]></description>
        <name>Lang Lang</name>
        <styleUrl>#gv_waypoint</styleUrl>
      </Placemark>
      <Placemark>
        <Point>
          <altitudeMode>clampToGround</altitudeMode>
          <coordinates>144.240000000,-38.010000000,0.000</coordinates>
        </Point>
        <description><![CDATA[Greater Geelong]]></description>
        <name>Lara</name>
        <styleUrl>#gv_waypoint</styleUrl>
      </Placemark>
      <Placemark>
        <Point>
          <altitudeMode>clampToGround</altitudeMode>
          <coordinates>143.230000000,-38.400000000,0.000</coordinates>
        </Point>
        <description><![CDATA[Colac Otway]]></description>
        <name>Lavers Hill</name>
        <styleUrl>#gv_waypoint</styleUrl>
      </Placemark>
      <Placemark>
        <Point>
          <altitudeMode>clampToGround</altitudeMode>
          <coordinates>144.460000000,-37.510000000,0.000</coordinates>
        </Point>
        <description><![CDATA[Hobsons Bay]]></description>
        <name>Laverton</name>
        <styleUrl>#gv_waypoint</styleUrl>
      </Placemark>
      <Placemark>
        <Point>
          <altitudeMode>clampToGround</altitudeMode>
          <coordinates>143.420000000,-37.250000000,0.000</coordinates>
        </Point>
        <description><![CDATA[Ballarat]]></description>
        <name>Learmonth</name>
        <styleUrl>#gv_waypoint</styleUrl>
      </Placemark>
      <Placemark>
        <Point>
          <altitudeMode>clampToGround</altitudeMode>
          <coordinates>145.560000000,-38.280000000,0.000</coordinates>
        </Point>
        <description><![CDATA[South Gippsland]]></description>
        <name>Leongatha</name>
        <styleUrl>#gv_waypoint</styleUrl>
      </Placemark>
      <Placemark>
        <Point>
          <altitudeMode>clampToGround</altitudeMode>
          <coordinates>143.300000000,-37.160000000,0.000</coordinates>
        </Point>
        <description><![CDATA[Pyrenees]]></description>
        <name>Lexton</name>
        <styleUrl>#gv_waypoint</styleUrl>
      </Placemark>
      <Placemark>
        <Point>
          <altitudeMode>clampToGround</altitudeMode>
          <coordinates>145.210000000,-37.450000000,0.000</coordinates>
        </Point>
        <description><![CDATA[Yarra Ranges]]></description>
        <name>Lilydale</name>
        <styleUrl>#gv_waypoint</styleUrl>
      </Placemark>
      <Placemark>
        <Point>
          <altitudeMode>clampToGround</altitudeMode>
          <coordinates>143.330000000,-37.410000000,0.000</coordinates>
        </Point>
        <description><![CDATA[Golden Plains]]></description>
        <name>Linton</name>
        <styleUrl>#gv_waypoint</styleUrl>
      </Placemark>
      <Placemark>
        <Point>
          <altitudeMode>clampToGround</altitudeMode>
          <coordinates>143.200000000,-37.570000000,0.000</coordinates>
        </Point>
        <description><![CDATA[Corangamite]]></description>
        <name>Lismore</name>
        <styleUrl>#gv_waypoint</styleUrl>
      </Placemark>
      <Placemark>
        <Point>
          <altitudeMode>clampToGround</altitudeMode>
          <coordinates>145.420000000,-38.220000000,0.000</coordinates>
        </Point>
        <description><![CDATA[South Gippsland]]></description>
        <name>Loch</name>
        <styleUrl>#gv_waypoint</styleUrl>
      </Placemark>
      <Placemark>
        <Point>
          <altitudeMode>clampToGround</altitudeMode>
          <coordinates>143.580000000,-38.320000000,0.000</coordinates>
        </Point>
        <description><![CDATA[Surf Coast]]></description>
        <name>Lorne</name>
        <styleUrl>#gv_waypoint</styleUrl>
      </Placemark>
      <Placemark>
        <Point>
          <altitudeMode>clampToGround</altitudeMode>
          <coordinates>141.590000000,-38.020000000,0.000</coordinates>
        </Point>
        <description><![CDATA[Moyne]]></description>
        <name>Macarthur</name>
        <styleUrl>#gv_waypoint</styleUrl>
      </Placemark>
      <Placemark>
        <Point>
          <altitudeMode>clampToGround</altitudeMode>
          <coordinates>144.330000000,-37.250000000,0.000</coordinates>
        </Point>
        <description><![CDATA[Macedon Ranges]]></description>
        <name>Macedon</name>
        <styleUrl>#gv_waypoint</styleUrl>
      </Placemark>
      <Placemark>
        <Point>
          <altitudeMode>clampToGround</altitudeMode>
          <coordinates>146.580000000,-37.580000000,0.000</coordinates>
        </Point>
        <description><![CDATA[Wellington]]></description>
        <name>Maffra</name>
        <styleUrl>#gv_waypoint</styleUrl>
      </Placemark>
      <Placemark>
        <Point>
          <altitudeMode>clampToGround</altitudeMode>
          <coordinates>144.030000000,-36.590000000,0.000</coordinates>
        </Point>
        <description><![CDATA[Mount Alexander]]></description>
        <name>Maldon</name>
        <styleUrl>#gv_waypoint</styleUrl>
      </Placemark>
      <Placemark>
        <Point>
          <altitudeMode>clampToGround</altitudeMode>
          <coordinates>149.440000000,-37.330000000,0.000</coordinates>
        </Point>
        <description><![CDATA[East Gippsland]]></description>
        <name>Mallacoota</name>
        <styleUrl>#gv_waypoint</styleUrl>
      </Placemark>
      <Placemark>
        <Point>
          <altitudeMode>clampToGround</altitudeMode>
          <coordinates>144.230000000,-37.110000000,0.000</coordinates>
        </Point>
        <description><![CDATA[Macedon Ranges]]></description>
        <name>Malmsbury</name>
        <styleUrl>#gv_waypoint</styleUrl>
      </Placemark>
      <Placemark>
        <Point>
          <altitudeMode>clampToGround</altitudeMode>
          <coordinates>145.010000000,-37.510000000,0.000</coordinates>
        </Point>
        <description><![CDATA[Stonnington]]></description>
        <name>Malvern</name>
        <styleUrl>#gv_waypoint</styleUrl>
      </Placemark>
      <Placemark>
        <Point>
          <altitudeMode>clampToGround</altitudeMode>
          <coordinates>142.520000000,-35.030000000,0.000</coordinates>
        </Point>
        <description><![CDATA[Swan Hill]]></description>
        <name>Manangatang</name>
        <styleUrl>#gv_waypoint</styleUrl>
      </Placemark>
      <Placemark>
        <Point>
          <altitudeMode>clampToGround</altitudeMode>
          <coordinates>146.050000000,-37.030000000,0.000</coordinates>
        </Point>
        <description><![CDATA[Mansfield]]></description>
        <name>Mansfield</name>
        <styleUrl>#gv_waypoint</styleUrl>
      </Placemark>
      <Placemark>
        <Point>
          <altitudeMode>clampToGround</altitudeMode>
          <coordinates>143.440000000,-37.020000000,0.000</coordinates>
        </Point>
        <description><![CDATA[Central Goldfields]]></description>
        <name>Maryborough</name>
        <styleUrl>#gv_waypoint</styleUrl>
      </Placemark>
      <Placemark>
        <Point>
          <altitudeMode>clampToGround</altitudeMode>
          <coordinates>145.440000000,-37.300000000,0.000</coordinates>
        </Point>
        <description><![CDATA[Murrindindi]]></description>
        <name>Marysville</name>
        <styleUrl>#gv_waypoint</styleUrl>
      </Placemark>
      <Placemark>
        <Point>
          <altitudeMode>clampToGround</altitudeMode>
          <coordinates>146.000000000,-38.340000000,0.000</coordinates>
        </Point>
        <description><![CDATA[South Gippsland]]></description>
        <name>Meeniyan</name>
        <styleUrl>#gv_waypoint</styleUrl>
      </Placemark>
      <Placemark>
        <Point>
          <altitudeMode>clampToGround</altitudeMode>
          <coordinates>146.000000000,-38.340000000,0.000</coordinates>
        </Point>
        <description><![CDATA[Hume]]></description>
        <name>Melbourne Airport</name>
        <styleUrl>#gv_waypoint</styleUrl>
      </Placemark>
      <Placemark>
        <Point>
          <altitudeMode>clampToGround</altitudeMode>
          <coordinates>144.570000000,-37.490000000,0.000</coordinates>
        </Point>
        <description><![CDATA[Melbourne]]></description>
        <name>Melbourne East</name>
        <styleUrl>#gv_waypoint</styleUrl>
      </Placemark>
      <Placemark>
        <Point>
          <altitudeMode>clampToGround</altitudeMode>
          <coordinates>144.570000000,-37.490000000,0.000</coordinates>
        </Point>
        <description><![CDATA[Melbourne]]></description>
        <name>Melbourne West</name>
        <styleUrl>#gv_waypoint</styleUrl>
      </Placemark>
      <Placemark>
        <Point>
          <altitudeMode>clampToGround</altitudeMode>
          <coordinates>144.340000000,-37.410000000,0.000</coordinates>
        </Point>
        <description><![CDATA[Melton]]></description>
        <name>Melton</name>
        <styleUrl>#gv_waypoint</styleUrl>
      </Placemark>
      <Placemark>
        <Point>
          <altitudeMode>clampToGround</altitudeMode>
          <coordinates>142.030000000,-34.100000000,0.000</coordinates>
        </Point>
        <description><![CDATA[Mildura]]></description>
        <name>Merbein</name>
        <styleUrl>#gv_waypoint</styleUrl>
      </Placemark>
      <Placemark>
        <Point>
          <altitudeMode>clampToGround</altitudeMode>
          <coordinates>144.040000000,-37.500000000,0.000</coordinates>
        </Point>
        <description><![CDATA[Golden Plains]]></description>
        <name>Meredith</name>
        <styleUrl>#gv_waypoint</styleUrl>
      </Placemark>
      <Placemark>
        <Point>
          <altitudeMode>clampToGround</altitudeMode>
          <coordinates>141.320000000,-37.430000000,0.000</coordinates>
        </Point>
        <description><![CDATA[Glenelg]]></description>
        <name>Merino</name>
        <styleUrl>#gv_waypoint</styleUrl>
      </Placemark>
      <Placemark>
        <Point>
          <altitudeMode>clampToGround</altitudeMode>
          <coordinates>142.090000000,-34.110000000,0.000</coordinates>
        </Point>
        <description><![CDATA[Mildura]]></description>
        <name>Mildura</name>
        <styleUrl>#gv_waypoint</styleUrl>
      </Placemark>
      <Placemark>
        <Point>
          <altitudeMode>clampToGround</altitudeMode>
          <coordinates>145.040000000,-37.390000000,0.000</coordinates>
        </Point>
        <description><![CDATA[Whittlesea]]></description>
        <name>Mill Park</name>
        <styleUrl>#gv_waypoint</styleUrl>
      </Placemark>
      <Placemark>
        <Point>
          <altitudeMode>clampToGround</altitudeMode>
          <coordinates>142.350000000,-36.270000000,0.000</coordinates>
        </Point>
        <description><![CDATA[Yarriambiack]]></description>
        <name>Minyip</name>
        <styleUrl>#gv_waypoint</styleUrl>
      </Placemark>
      <Placemark>
        <Point>
          <altitudeMode>clampToGround</altitudeMode>
          <coordinates>146.090000000,-38.240000000,0.000</coordinates>
        </Point>
        <description><![CDATA[South Gippsland]]></description>
        <name>Mirboo North</name>
        <styleUrl>#gv_waypoint</styleUrl>
      </Placemark>
      <Placemark>
        <Point>
          <altitudeMode>clampToGround</altitudeMode>
          <coordinates>147.150000000,-36.270000000,0.000</coordinates>
        </Point>
        <description><![CDATA[Towong]]></description>
        <name>Mitta Mitta</name>
        <styleUrl>#gv_waypoint</styleUrl>
      </Placemark>
      <Placemark>
        <Point>
          <altitudeMode>clampToGround</altitudeMode>
          <coordinates>146.150000000,-38.100000000,0.000</coordinates>
        </Point>
        <description><![CDATA[La Trobe]]></description>
        <name>Moe</name>
        <styleUrl>#gv_waypoint</styleUrl>
      </Placemark>
      <Placemark>
        <Point>
          <altitudeMode>clampToGround</altitudeMode>
          <coordinates>145.240000000,-37.520000000,0.000</coordinates>
        </Point>
        <description><![CDATA[Yarra Ranges]]></description>
        <name>Monbulk</name>
        <styleUrl>#gv_waypoint</styleUrl>
      </Placemark>
      <Placemark>
        <Point>
          <altitudeMode>clampToGround</altitudeMode>
          <coordinates>144.550000000,-37.450000000,0.000</coordinates>
        </Point>
        <description><![CDATA[Moonee Valley]]></description>
        <name>Moonee Ponds</name>
        <styleUrl>#gv_waypoint</styleUrl>
      </Placemark>
      <Placemark>
        <Point>
          <altitudeMode>clampToGround</altitudeMode>
          <coordinates>145.020000000,-37.560000000,0.000</coordinates>
        </Point>
        <description><![CDATA[Kingston]]></description>
        <name>Moorabbin</name>
        <styleUrl>#gv_waypoint</styleUrl>
      </Placemark>
      <Placemark>
        <Point>
          <altitudeMode>clampToGround</altitudeMode>
          <coordinates>145.180000000,-37.470000000,0.000</coordinates>
        </Point>
        <description><![CDATA[Yarra Ranges]]></description>
        <name>Mooroolbark</name>
        <styleUrl>#gv_waypoint</styleUrl>
      </Placemark>
      <Placemark>
        <Point>
          <altitudeMode>clampToGround</altitudeMode>
          <coordinates>145.210000000,-36.230000000,0.000</coordinates>
        </Point>
        <description><![CDATA[Greater Shepparton]]></description>
        <name>Mooroopna</name>
        <styleUrl>#gv_waypoint</styleUrl>
      </Placemark>
      <Placemark>
        <Point>
          <altitudeMode>clampToGround</altitudeMode>
          <coordinates>145.050000000,-38.000000000,0.000</coordinates>
        </Point>
        <description><![CDATA[Kingston]]></description>
        <name>Mordialloc</name>
        <styleUrl>#gv_waypoint</styleUrl>
      </Placemark>
      <Placemark>
        <Point>
          <altitudeMode>clampToGround</altitudeMode>
          <coordinates>145.020000000,-38.130000000,0.000</coordinates>
        </Point>
        <description><![CDATA[Mornington Peninsula]]></description>
        <name>Mornington</name>
        <styleUrl>#gv_waypoint</styleUrl>
      </Placemark>
      <Placemark>
        <Point>
          <altitudeMode>clampToGround</altitudeMode>
          <coordinates>142.480000000,-38.040000000,0.000</coordinates>
        </Point>
        <description><![CDATA[Moyne]]></description>
        <name>Mortlake</name>
        <styleUrl>#gv_waypoint</styleUrl>
      </Placemark>
      <Placemark>
        <Point>
          <altitudeMode>clampToGround</altitudeMode>
          <coordinates>146.230000000,-38.140000000,0.000</coordinates>
        </Point>
        <description><![CDATA[La Trobe]]></description>
        <name>Morwell</name>
        <styleUrl>#gv_waypoint</styleUrl>
      </Placemark>
      <Placemark>
        <Point>
          <altitudeMode>clampToGround</altitudeMode>
          <coordinates>147.100000000,-36.440000000,0.000</coordinates>
        </Point>
        <description><![CDATA[Alpine]]></description>
        <name>Mount Beauty</name>
        <styleUrl>#gv_waypoint</styleUrl>
      </Placemark>
      <Placemark>
        <Point>
          <altitudeMode>clampToGround</altitudeMode>
          <coordinates>146.270000000,-37.080000000,0.000</coordinates>
        </Point>
        <description><![CDATA[Mansfield]]></description>
        <name>Mount Buller</name>
        <styleUrl>#gv_waypoint</styleUrl>
      </Placemark>
      <Placemark>
        <Point>
          <altitudeMode>clampToGround</altitudeMode>
          <coordinates>145.220000000,-37.470000000,0.000</coordinates>
        </Point>
        <description><![CDATA[Yarra Ranges]]></description>
        <name>Mount Evelyn</name>
        <styleUrl>#gv_waypoint</styleUrl>
      </Placemark>
      <Placemark>
        <Point>
          <altitudeMode>clampToGround</altitudeMode>
          <coordinates>147.080000000,-36.580000000,0.000</coordinates>
        </Point>
        <description><![CDATA[Alpine]]></description>
        <name>Mount Hotham</name>
        <styleUrl>#gv_waypoint</styleUrl>
      </Placemark>
      <Placemark>
        <Point>
          <altitudeMode>clampToGround</altitudeMode>
          <coordinates>145.070000000,-37.520000000,0.000</coordinates>
        </Point>
        <description><![CDATA[Monash]]></description>
        <name>Mount Waverley</name>
        <styleUrl>#gv_waypoint</styleUrl>
      </Placemark>
      <Placemark>
        <Point>
          <altitudeMode>clampToGround</altitudeMode>
          <coordinates>146.220000000,-36.340000000,0.000</coordinates>
        </Point>
        <description><![CDATA[Wangaratta]]></description>
        <name>Moyhu</name>
        <styleUrl>#gv_waypoint</styleUrl>
      </Placemark>
      <Placemark>
        <Point>
          <altitudeMode>clampToGround</altitudeMode>
          <coordinates>145.130000000,-36.370000000,0.000</coordinates>
        </Point>
        <description><![CDATA[Greater Shepparton]]></description>
        <name>Murchison</name>
        <styleUrl>#gv_waypoint</styleUrl>
      </Placemark>
      <Placemark>
        <Point>
          <altitudeMode>clampToGround</altitudeMode>
          <coordinates>141.100000000,-35.150000000,0.000</coordinates>
        </Point>
        <description><![CDATA[Mildura]]></description>
        <name>Murrayville</name>
        <styleUrl>#gv_waypoint</styleUrl>
      </Placemark>
      <Placemark>
        <Point>
          <altitudeMode>clampToGround</altitudeMode>
          <coordinates>145.030000000,-37.530000000,0.000</coordinates>
        </Point>
        <description><![CDATA[Glen Eira]]></description>
        <name>Murrumbeena</name>
        <styleUrl>#gv_waypoint</styleUrl>
      </Placemark>
      <Placemark>
        <Point>
          <altitudeMode>clampToGround</altitudeMode>
          <coordinates>142.280000000,-36.370000000,0.000</coordinates>
        </Point>
        <description><![CDATA[Yarriambiack]]></description>
        <name>Murtoa</name>
        <styleUrl>#gv_waypoint</styleUrl>
      </Placemark>
      <Placemark>
        <Point>
          <altitudeMode>clampToGround</altitudeMode>
          <coordinates>146.430000000,-36.330000000,0.000</coordinates>
        </Point>
        <description><![CDATA[Alpine]]></description>
        <name>Myrtleford</name>
        <styleUrl>#gv_waypoint</styleUrl>
      </Placemark>
      <Placemark>
        <Point>
          <altitudeMode>clampToGround</altitudeMode>
          <coordinates>145.090000000,-36.470000000,0.000</coordinates>
        </Point>
        <description><![CDATA[Strathbogie]]></description>
        <name>Nagambie</name>
        <styleUrl>#gv_waypoint</styleUrl>
      </Placemark>
      <Placemark>
        <Point>
          <altitudeMode>clampToGround</altitudeMode>
          <coordinates>145.180000000,-38.010000000,0.000</coordinates>
        </Point>
        <description><![CDATA[Casey]]></description>
        <name>Narre Warren</name>
        <styleUrl>#gv_waypoint</styleUrl>
      </Placemark>
      <Placemark>
        <Point>
          <altitudeMode>clampToGround</altitudeMode>
          <coordinates>145.120000000,-36.030000000,0.000</coordinates>
        </Point>
        <description><![CDATA[Moira]]></description>
        <name>Nathalia</name>
        <styleUrl>#gv_waypoint</styleUrl>
      </Placemark>
      <Placemark>
        <Point>
          <altitudeMode>clampToGround</altitudeMode>
          <coordinates>141.560000000,-36.440000000,0.000</coordinates>
        </Point>
        <description><![CDATA[Horsham]]></description>
        <name>Natimuk</name>
        <styleUrl>#gv_waypoint</styleUrl>
      </Placemark>
      <Placemark>
        <Point>
          <altitudeMode>clampToGround</altitudeMode>
          <coordinates>145.570000000,-38.010000000,0.000</coordinates>
        </Point>
        <description><![CDATA[Baw Baw]]></description>
        <name>Neerim South</name>
        <styleUrl>#gv_waypoint</styleUrl>
      </Placemark>
      <Placemark>
        <Point>
          <altitudeMode>clampToGround</altitudeMode>
          <coordinates>144.030000000,-37.060000000,0.000</coordinates>
        </Point>
        <description><![CDATA[Mount Alexander]]></description>
        <name>Newstead</name>
        <styleUrl>#gv_waypoint</styleUrl>
      </Placemark>
      <Placemark>
        <Point>
          <altitudeMode>clampToGround</altitudeMode>
          <coordinates>141.390000000,-36.200000000,0.000</coordinates>
        </Point>
        <description><![CDATA[Hindmarsh]]></description>
        <name>Nhill</name>
        <styleUrl>#gv_waypoint</styleUrl>
      </Placemark>
      <Placemark>
        <Point>
          <altitudeMode>clampToGround</altitudeMode>
          <coordinates>144.590000000,-37.460000000,0.000</coordinates>
        </Point>
        <description><![CDATA[Darebin]]></description>
        <name>Northcote</name>
        <styleUrl>#gv_waypoint</styleUrl>
      </Placemark>
      <Placemark>
        <Point>
          <altitudeMode>clampToGround</altitudeMode>
          <coordinates>145.260000000,-36.050000000,0.000</coordinates>
        </Point>
        <description><![CDATA[Moira]]></description>
        <name>Numurkah</name>
        <styleUrl>#gv_waypoint</styleUrl>
      </Placemark>
      <Placemark>
        <Point>
          <altitudeMode>clampToGround</altitudeMode>
          <coordinates>145.100000000,-37.490000000,0.000</coordinates>
        </Point>
        <description><![CDATA[Whitehorse]]></description>
        <name>Nunawading</name>
        <styleUrl>#gv_waypoint</styleUrl>
      </Placemark>
      <Placemark>
        <Point>
          <altitudeMode>clampToGround</altitudeMode>
          <coordinates>143.220000000,-35.100000000,0.000</coordinates>
        </Point>
        <description><![CDATA[Swan Hill]]></description>
        <name>Nyah</name>
        <styleUrl>#gv_waypoint</styleUrl>
      </Placemark>
      <Placemark>
        <Point>
          <altitudeMode>clampToGround</altitudeMode>
          <coordinates>145.050000000,-37.530000000,0.000</coordinates>
        </Point>
        <description><![CDATA[Monash]]></description>
        <name>Oakleigh</name>
        <styleUrl>#gv_waypoint</styleUrl>
      </Placemark>
      <Placemark>
        <Point>
          <altitudeMode>clampToGround</altitudeMode>
          <coordinates>145.210000000,-37.510000000,0.000</coordinates>
        </Point>
        <description><![CDATA[Yarra Ranges]]></description>
        <name>Olinda</name>
        <styleUrl>#gv_waypoint</styleUrl>
      </Placemark>
      <Placemark>
        <Point>
          <altitudeMode>clampToGround</altitudeMode>
          <coordinates>147.350000000,-37.060000000,0.000</coordinates>
        </Point>
        <description><![CDATA[East Gippsland]]></description>
        <name>Omeo</name>
        <styleUrl>#gv_waypoint</styleUrl>
      </Placemark>
      <Placemark>
        <Point>
          <altitudeMode>clampToGround</altitudeMode>
          <coordinates>148.270000000,-37.420000000,0.000</coordinates>
        </Point>
        <description><![CDATA[East Gippsland]]></description>
        <name>Orbost</name>
        <styleUrl>#gv_waypoint</styleUrl>
      </Placemark>
      <Placemark>
        <Point>
          <altitudeMode>clampToGround</altitudeMode>
          <coordinates>142.180000000,-35.040000000,0.000</coordinates>
        </Point>
        <description><![CDATA[Mildura]]></description>
        <name>Ouyen</name>
        <styleUrl>#gv_waypoint</styleUrl>
      </Placemark>
      <Placemark>
        <Point>
          <altitudeMode>clampToGround</altitudeMode>
          <coordinates>145.280000000,-38.040000000,0.000</coordinates>
        </Point>
        <description><![CDATA[Cardinia]]></description>
        <name>Pakenham</name>
        <styleUrl>#gv_waypoint</styleUrl>
      </Placemark>
      <Placemark>
        <Point>
          <altitudeMode>clampToGround</altitudeMode>
          <coordinates>142.170000000,-37.520000000,0.000</coordinates>
        </Point>
        <description><![CDATA[Southern Grampians]]></description>
        <name>Penshurst</name>
        <styleUrl>#gv_waypoint</styleUrl>
      </Placemark>
      <Placemark>
        <Point>
          <altitudeMode>clampToGround</altitudeMode>
          <coordinates>143.180000000,-35.030000000,0.000</coordinates>
        </Point>
        <description><![CDATA[Swan Hill]]></description>
        <name>Piangil</name>
        <styleUrl>#gv_waypoint</styleUrl>
      </Placemark>
      <Placemark>
        <Point>
          <altitudeMode>clampToGround</altitudeMode>
          <coordinates>142.590000000,-38.370000000,0.000</coordinates>
        </Point>
        <description><![CDATA[Corangamite]]></description>
        <name>Port Campbell</name>
        <styleUrl>#gv_waypoint</styleUrl>
      </Placemark>
      <Placemark>
        <Point>
          <altitudeMode>clampToGround</altitudeMode>
          <coordinates>142.140000000,-38.230000000,0.000</coordinates>
        </Point>
        <description><![CDATA[Moyne]]></description>
        <name>Port Fairy</name>
        <styleUrl>#gv_waypoint</styleUrl>
      </Placemark>
      <Placemark>
        <Point>
          <altitudeMode>clampToGround</altitudeMode>
          <coordinates>144.390000000,-38.070000000,0.000</coordinates>
        </Point>
        <description><![CDATA[Greater Geelong]]></description>
        <name>Portarlington</name>
        <styleUrl>#gv_waypoint</styleUrl>
      </Placemark>
      <Placemark>
        <Point>
          <altitudeMode>clampToGround</altitudeMode>
          <coordinates>141.360000000,-38.210000000,0.000</coordinates>
        </Point>
        <description><![CDATA[Glenelg]]></description>
        <name>Portland</name>
        <styleUrl>#gv_waypoint</styleUrl>
      </Placemark>
      <Placemark>
        <Point>
          <altitudeMode>clampToGround</altitudeMode>
          <coordinates>144.590000000,-37.500000000,0.000</coordinates>
        </Point>
        <description><![CDATA[Stonnington]]></description>
        <name>Prahran</name>
        <styleUrl>#gv_waypoint</styleUrl>
      </Placemark>
      <Placemark>
        <Point>
          <altitudeMode>clampToGround</altitudeMode>
          <coordinates>145.000000000,-37.440000000,0.000</coordinates>
        </Point>
        <description><![CDATA[Darebin]]></description>
        <name>Preston</name>
        <styleUrl>#gv_waypoint</styleUrl>
      </Placemark>
      <Placemark>
        <Point>
          <altitudeMode>clampToGround</altitudeMode>
          <coordinates>145.010000000,-37.440000000,0.000</coordinates>
        </Point>
        <description><![CDATA[Darebin]]></description>
        <name>Preston East</name>
        <styleUrl>#gv_waypoint</styleUrl>
      </Placemark>
      <Placemark>
        <Point>
          <altitudeMode>clampToGround</altitudeMode>
          <coordinates>144.510000000,-37.070000000,0.000</coordinates>
        </Point>
        <description><![CDATA[Mitchell]]></description>
        <name>Pyalong</name>
        <styleUrl>#gv_waypoint</styleUrl>
      </Placemark>
      <Placemark>
        <Point>
          <altitudeMode>clampToGround</altitudeMode>
          <coordinates>144.060000000,-36.030000000,0.000</coordinates>
        </Point>
        <description><![CDATA[Loddon]]></description>
        <name>Pyramid Hill</name>
        <styleUrl>#gv_waypoint</styleUrl>
      </Placemark>
      <Placemark>
        <Point>
          <altitudeMode>clampToGround</altitudeMode>
          <coordinates>143.310000000,-35.510000000,0.000</coordinates>
        </Point>
        <description><![CDATA[Gannawarra]]></description>
        <name>Quambatook</name>
        <styleUrl>#gv_waypoint</styleUrl>
      </Placemark>
      <Placemark>
        <Point>
          <altitudeMode>clampToGround</altitudeMode>
          <coordinates>144.390000000,-38.160000000,0.000</coordinates>
        </Point>
        <description><![CDATA[Queenscliff]]></description>
        <name>Queenscliff</name>
        <styleUrl>#gv_waypoint</styleUrl>
      </Placemark>
      <Placemark>
        <Point>
          <altitudeMode>clampToGround</altitudeMode>
          <coordinates>141.590000000,-35.540000000,0.000</coordinates>
        </Point>
        <description><![CDATA[Hindmarsh]]></description>
        <name>Rainbow</name>
        <styleUrl>#gv_waypoint</styleUrl>
      </Placemark>
      <Placemark>
        <Point>
          <altitudeMode>clampToGround</altitudeMode>
          <coordinates>146.230000000,-37.570000000,0.000</coordinates>
        </Point>
        <description><![CDATA[Baw Baw]]></description>
        <name>Rawson</name>
        <styleUrl>#gv_waypoint</styleUrl>
      </Placemark>
      <Placemark>
        <Point>
          <altitudeMode>clampToGround</altitudeMode>
          <coordinates>144.120000000,-36.320000000,0.000</coordinates>
        </Point>
        <description><![CDATA[Greater Bendigo]]></description>
        <name>Raywood</name>
        <styleUrl>#gv_waypoint</styleUrl>
      </Placemark>
      <Placemark>
        <Point>
          <altitudeMode>clampToGround</altitudeMode>
          <coordinates>142.110000000,-34.180000000,0.000</coordinates>
        </Point>
        <description><![CDATA[Mildura]]></description>
        <name>Red Cliffs</name>
        <styleUrl>#gv_waypoint</styleUrl>
      </Placemark>
      <Placemark>
        <Point>
          <altitudeMode>clampToGround</altitudeMode>
          <coordinates>145.000000000,-37.430000000,0.000</coordinates>
        </Point>
        <description><![CDATA[Darebin]]></description>
        <name>Reservoir</name>
        <styleUrl>#gv_waypoint</styleUrl>
      </Placemark>
      <Placemark>
        <Point>
          <altitudeMode>clampToGround</altitudeMode>
          <coordinates>144.590000000,-37.490000000,0.000</coordinates>
        </Point>
        <description><![CDATA[Yarra]]></description>
        <name>Richmond</name>
        <styleUrl>#gv_waypoint</styleUrl>
      </Placemark>
      <Placemark>
        <Point>
          <altitudeMode>clampToGround</altitudeMode>
          <coordinates>144.400000000,-37.270000000,0.000</coordinates>
        </Point>
        <description><![CDATA[Macedon Ranges]]></description>
        <name>Riddells Creek</name>
        <styleUrl>#gv_waypoint</styleUrl>
      </Placemark>
      <Placemark>
        <Point>
          <altitudeMode>clampToGround</altitudeMode>
          <coordinates>145.130000000,-37.480000000,0.000</coordinates>
        </Point>
        <description><![CDATA[Maroondah]]></description>
        <name>Ringwood</name>
        <styleUrl>#gv_waypoint</styleUrl>
      </Placemark>
      <Placemark>
        <Point>
          <altitudeMode>clampToGround</altitudeMode>
          <coordinates>142.460000000,-34.350000000,0.000</coordinates>
        </Point>
        <description><![CDATA[Swan Hill]]></description>
        <name>Robinvale</name>
        <styleUrl>#gv_waypoint</styleUrl>
      </Placemark>
      <Placemark>
        <Point>
          <altitudeMode>clampToGround</altitudeMode>
          <coordinates>144.410000000,-36.210000000,0.000</coordinates>
        </Point>
        <description><![CDATA[Campaspe]]></description>
        <name>Rochester</name>
        <styleUrl>#gv_waypoint</styleUrl>
      </Placemark>
      <Placemark>
        <Point>
          <altitudeMode>clampToGround</altitudeMode>
          <coordinates>143.430000000,-37.540000000,0.000</coordinates>
        </Point>
        <description><![CDATA[Golden Plains]]></description>
        <name>Rokewood</name>
        <styleUrl>#gv_waypoint</styleUrl>
      </Placemark>
      <Placemark>
        <Point>
          <altitudeMode>clampToGround</altitudeMode>
          <coordinates>144.440000000,-37.200000000,0.000</coordinates>
        </Point>
        <description><![CDATA[Macedon Ranges]]></description>
        <name>Romsey</name>
        <styleUrl>#gv_waypoint</styleUrl>
      </Placemark>
      <Placemark>
        <Point>
          <altitudeMode>clampToGround</altitudeMode>
          <coordinates>144.530000000,-38.220000000,0.000</coordinates>
        </Point>
        <description><![CDATA[Mornington Peninsula]]></description>
        <name>Rosebud</name>
        <styleUrl>#gv_waypoint</styleUrl>
      </Placemark>
      <Placemark>
        <Point>
          <altitudeMode>clampToGround</altitudeMode>
          <coordinates>146.470000000,-38.090000000,0.000</coordinates>
        </Point>
        <description><![CDATA[Wellington]]></description>
        <name>Rosedale</name>
        <styleUrl>#gv_waypoint</styleUrl>
      </Placemark>
      <Placemark>
        <Point>
          <altitudeMode>clampToGround</altitudeMode>
          <coordinates>145.140000000,-37.550000000,0.000</coordinates>
        </Point>
        <description><![CDATA[Knox]]></description>
        <name>Rowville</name>
        <styleUrl>#gv_waypoint</styleUrl>
      </Placemark>
      <Placemark>
        <Point>
          <altitudeMode>clampToGround</altitudeMode>
          <coordinates>142.370000000,-36.380000000,0.000</coordinates>
        </Point>
        <description><![CDATA[Yarriambiack]]></description>
        <name>Rupanyup</name>
        <styleUrl>#gv_waypoint</styleUrl>
      </Placemark>
      <Placemark>
        <Point>
          <altitudeMode>clampToGround</altitudeMode>
          <coordinates>145.000000000,-36.350000000,0.000</coordinates>
        </Point>
        <description><![CDATA[Campaspe]]></description>
        <name>Rushworth</name>
        <styleUrl>#gv_waypoint</styleUrl>
      </Placemark>
      <Placemark>
        <Point>
          <altitudeMode>clampToGround</altitudeMode>
          <coordinates>146.270000000,-36.030000000,0.000</coordinates>
        </Point>
        <description><![CDATA[Indigo]]></description>
        <name>Rutherglen</name>
        <styleUrl>#gv_waypoint</styleUrl>
      </Placemark>
      <Placemark>
        <Point>
          <altitudeMode>clampToGround</altitudeMode>
          <coordinates>144.490000000,-38.220000000,0.000</coordinates>
        </Point>
        <description><![CDATA[Mornington Peninsula]]></description>
        <name>Rye</name>
        <styleUrl>#gv_waypoint</styleUrl>
      </Placemark>
      <Placemark>
        <Point>
          <altitudeMode>clampToGround</altitudeMode>
          <coordinates>147.040000000,-38.060000000,0.000</coordinates>
        </Point>
        <description><![CDATA[Wellington]]></description>
        <name>Sale</name>
        <styleUrl>#gv_waypoint</styleUrl>
      </Placemark>
      <Placemark>
        <Point>
          <altitudeMode>clampToGround</altitudeMode>
          <coordinates>145.220000000,-38.310000000,0.000</coordinates>
        </Point>
        <description><![CDATA[Bass Coast]]></description>
        <name>San Remo</name>
        <styleUrl>#gv_waypoint</styleUrl>
      </Placemark>
      <Placemark>
        <Point>
          <altitudeMode>clampToGround</altitudeMode>
          <coordinates>145.000000000,-37.560000000,0.000</coordinates>
        </Point>
        <description><![CDATA[Bayside]]></description>
        <name>Sandringham</name>
        <styleUrl>#gv_waypoint</styleUrl>
      </Placemark>
      <Placemark>
        <Point>
          <altitudeMode>clampToGround</altitudeMode>
          <coordinates>142.500000000,-35.300000000,0.000</coordinates>
        </Point>
        <description><![CDATA[Buloke]]></description>
        <name>Sea Lake</name>
        <styleUrl>#gv_waypoint</styleUrl>
      </Placemark>
      <Placemark>
        <Point>
          <altitudeMode>clampToGround</altitudeMode>
          <coordinates>143.580000000,-36.240000000,0.000</coordinates>
        </Point>
        <description><![CDATA[Loddon]]></description>
        <name>Serpentine</name>
        <styleUrl>#gv_waypoint</styleUrl>
      </Placemark>
      <Placemark>
        <Point>
          <altitudeMode>clampToGround</altitudeMode>
          <coordinates>145.070000000,-37.010000000,0.000</coordinates>
        </Point>
        <description><![CDATA[Mitchell]]></description>
        <name>Seymour</name>
        <styleUrl>#gv_waypoint</styleUrl>
      </Placemark>
      <Placemark>
        <Point>
          <altitudeMode>clampToGround</altitudeMode>
          <coordinates>145.230000000,-36.220000000,0.000</coordinates>
        </Point>
        <description><![CDATA[Greater Shepparton]]></description>
        <name>Shepparton</name>
        <styleUrl>#gv_waypoint</styleUrl>
      </Placemark>
      <Placemark>
        <Point>
          <altitudeMode>clampToGround</altitudeMode>
          <coordinates>143.210000000,-37.410000000,0.000</coordinates>
        </Point>
        <description><![CDATA[Corangamite]]></description>
        <name>Skipton</name>
        <styleUrl>#gv_waypoint</styleUrl>
      </Placemark>
      <Placemark>
        <Point>
          <altitudeMode>clampToGround</altitudeMode>
          <coordinates>143.410000000,-37.380000000,0.000</coordinates>
        </Point>
        <description><![CDATA[Golden Plains]]></description>
        <name>Smythesdale</name>
        <styleUrl>#gv_waypoint</styleUrl>
      </Placemark>
      <Placemark>
        <Point>
          <altitudeMode>clampToGround</altitudeMode>
          <coordinates>144.440000000,-38.200000000,0.000</coordinates>
        </Point>
        <description><![CDATA[Mornington Peninsula]]></description>
        <name>Sorrento</name>
        <styleUrl>#gv_waypoint</styleUrl>
      </Placemark>
      <Placemark>
        <Point>
          <altitudeMode>clampToGround</altitudeMode>
          <coordinates>144.570000000,-37.500000000,0.000</coordinates>
        </Point>
        <description><![CDATA[Port Phillip]]></description>
        <name>South Melbourne</name>
        <styleUrl>#gv_waypoint</styleUrl>
      </Placemark>
      <Placemark>
        <Point>
          <altitudeMode>clampToGround</altitudeMode>
          <coordinates>142.260000000,-35.240000000,0.000</coordinates>
        </Point>
        <description><![CDATA[Yarriambiack]]></description>
        <name>Speed</name>
        <styleUrl>#gv_waypoint</styleUrl>
      </Placemark>
      <Placemark>
        <Point>
          <altitudeMode>clampToGround</altitudeMode>
          <coordinates>145.080000000,-37.570000000,0.000</coordinates>
        </Point>
        <description><![CDATA[Greater Dandenong]]></description>
        <name>Springvale</name>
        <styleUrl>#gv_waypoint</styleUrl>
      </Placemark>
      <Placemark>
        <Point>
          <altitudeMode>clampToGround</altitudeMode>
          <coordinates>143.150000000,-36.370000000,0.000</coordinates>
        </Point>
        <description><![CDATA[Northern Grampians]]></description>
        <name>St Arnaud</name>
        <styleUrl>#gv_waypoint</styleUrl>
      </Placemark>
      <Placemark>
        <Point>
          <altitudeMode>clampToGround</altitudeMode>
          <coordinates>145.530000000,-36.160000000,0.000</coordinates>
        </Point>
        <description><![CDATA[Moira]]></description>
        <name>St James</name>
        <styleUrl>#gv_waypoint</styleUrl>
      </Placemark>
      <Placemark>
        <Point>
          <altitudeMode>clampToGround</altitudeMode>
          <coordinates>144.590000000,-37.520000000,0.000</coordinates>
        </Point>
        <description><![CDATA[Port Phillip]]></description>
        <name>St Kilda</name>
        <styleUrl>#gv_waypoint</styleUrl>
      </Placemark>
      <Placemark>
        <Point>
          <altitudeMode>clampToGround</altitudeMode>
          <coordinates>144.580000000,-37.500000000,0.000</coordinates>
        </Point>
        <description><![CDATA[Port Phillip]]></description>
        <name>St Kilda Road</name>
        <styleUrl>#gv_waypoint</styleUrl>
      </Placemark>
      <Placemark>
        <Point>
          <altitudeMode>clampToGround</altitudeMode>
          <coordinates>144.590000000,-36.260000000,0.000</coordinates>
        </Point>
        <description><![CDATA[Campaspe]]></description>
        <name>Stanhope</name>
        <styleUrl>#gv_waypoint</styleUrl>
      </Placemark>
      <Placemark>
        <Point>
          <altitudeMode>clampToGround</altitudeMode>
          <coordinates>142.460000000,-37.030000000,0.000</coordinates>
        </Point>
        <description><![CDATA[Northern Grampians]]></description>
        <name>Stawell</name>
        <styleUrl>#gv_waypoint</styleUrl>
      </Placemark>
      <Placemark>
        <Point>
          <altitudeMode>clampToGround</altitudeMode>
          <coordinates>144.590000000,-36.260000000,0.000</coordinates>
        </Point>
        <description><![CDATA[Wellington]]></description>
        <name>Stratford</name>
        <styleUrl>#gv_waypoint</styleUrl>
      </Placemark>
      <Placemark>
        <Point>
          <altitudeMode>clampToGround</altitudeMode>
          <coordinates>144.440000000,-37.340000000,0.000</coordinates>
        </Point>
        <description><![CDATA[Hume]]></description>
        <name>Sunbury</name>
        <styleUrl>#gv_waypoint</styleUrl>
      </Placemark>
      <Placemark>
        <Point>
          <altitudeMode>clampToGround</altitudeMode>
          <coordinates>144.490000000,-37.460000000,0.000</coordinates>
        </Point>
        <description><![CDATA[Brimbank]]></description>
        <name>Sunshine</name>
        <styleUrl>#gv_waypoint</styleUrl>
      </Placemark>
      <Placemark>
        <Point>
          <altitudeMode>clampToGround</altitudeMode>
          <coordinates>143.330000000,-35.200000000,0.000</coordinates>
        </Point>
        <description><![CDATA[Swan Hill]]></description>
        <name>Swan Hill</name>
        <styleUrl>#gv_waypoint</styleUrl>
      </Placemark>
      <Placemark>
        <Point>
          <altitudeMode>clampToGround</altitudeMode>
          <coordinates>147.430000000,-37.160000000,0.000</coordinates>
        </Point>
        <description><![CDATA[East Gippsland]]></description>
        <name>Swifts Creek</name>
        <styleUrl>#gv_waypoint</styleUrl>
      </Placemark>
      <Placemark>
        <Point>
          <altitudeMode>clampToGround</altitudeMode>
          <coordinates>147.100000000,-36.130000000,0.000</coordinates>
        </Point>
        <description><![CDATA[Towong]]></description>
        <name>Tallangatta</name>
        <styleUrl>#gv_waypoint</styleUrl>
      </Placemark>
      <Placemark>
        <Point>
          <altitudeMode>clampToGround</altitudeMode>
          <coordinates>147.020000000,-36.150000000,0.000</coordinates>
        </Point>
        <description><![CDATA[Indigo]]></description>
        <name>Tangambalanga</name>
        <styleUrl>#gv_waypoint</styleUrl>
      </Placemark>
      <Placemark>
        <Point>
          <altitudeMode>clampToGround</altitudeMode>
          <coordinates>143.490000000,-36.460000000,0.000</coordinates>
        </Point>
        <description><![CDATA[Loddon]]></description>
        <name>Tarnagulla</name>
        <styleUrl>#gv_waypoint</styleUrl>
      </Placemark>
      <Placemark>
        <Point>
          <altitudeMode>clampToGround</altitudeMode>
          <coordinates>145.130000000,-36.260000000,0.000</coordinates>
        </Point>
        <description><![CDATA[Greater Shepparton]]></description>
        <name>Tatura</name>
        <styleUrl>#gv_waypoint</styleUrl>
      </Placemark>
      <Placemark>
        <Point>
          <altitudeMode>clampToGround</altitudeMode>
          <coordinates>142.550000000,-38.140000000,0.000</coordinates>
        </Point>
        <description><![CDATA[Corangamite]]></description>
        <name>Terang</name>
        <styleUrl>#gv_waypoint</styleUrl>
      </Placemark>
      <Placemark>
        <Point>
          <altitudeMode>clampToGround</altitudeMode>
          <coordinates>142.580000000,-38.290000000,0.000</coordinates>
        </Point>
        <description><![CDATA[Corangamite]]></description>
        <name>Timboon</name>
        <styleUrl>#gv_waypoint</styleUrl>
      </Placemark>
      <Placemark>
        <Point>
          <altitudeMode>clampToGround</altitudeMode>
          <coordinates>144.560000000,-36.150000000,0.000</coordinates>
        </Point>
        <description><![CDATA[Campaspe]]></description>
        <name>Tongala</name>
        <styleUrl>#gv_waypoint</styleUrl>
      </Placemark>
      <Placemark>
        <Point>
          <altitudeMode>clampToGround</altitudeMode>
          <coordinates>146.190000000,-38.390000000,0.000</coordinates>
        </Point>
        <description><![CDATA[South Gippsland]]></description>
        <name>Toora</name>
        <styleUrl>#gv_waypoint</styleUrl>
      </Placemark>
      <Placemark>
        <Point>
          <altitudeMode>clampToGround</altitudeMode>
          <coordinates>144.190000000,-38.190000000,0.000</coordinates>
        </Point>
        <description><![CDATA[Surf Coast]]></description>
        <name>Torquay</name>
        <styleUrl>#gv_waypoint</styleUrl>
      </Placemark>
      <Placemark>
        <Point>
          <altitudeMode>clampToGround</altitudeMode>
          <coordinates>146.090000000,-38.120000000,0.000</coordinates>
        </Point>
        <description><![CDATA[Baw Baw]]></description>
        <name>Trafalgar</name>
        <styleUrl>#gv_waypoint</styleUrl>
      </Placemark>
      <Placemark>
        <Point>
          <altitudeMode>clampToGround</altitudeMode>
          <coordinates>146.320000000,-38.110000000,0.000</coordinates>
        </Point>
        <description><![CDATA[La Trobe]]></description>
        <name>Traralgon</name>
        <styleUrl>#gv_waypoint</styleUrl>
      </Placemark>
      <Placemark>
        <Point>
          <altitudeMode>clampToGround</altitudeMode>
          <coordinates>144.190000000,-37.230000000,0.000</coordinates>
        </Point>
        <description><![CDATA[Hepburn]]></description>
        <name>Trentham</name>
        <styleUrl>#gv_waypoint</styleUrl>
      </Placemark>
      <Placemark>
        <Point>
          <altitudeMode>clampToGround</altitudeMode>
          <coordinates>145.520000000,-36.100000000,0.000</coordinates>
        </Point>
        <description><![CDATA[Moira]]></description>
        <name>Tungamah</name>
        <styleUrl>#gv_waypoint</styleUrl>
      </Placemark>
      <Placemark>
        <Point>
          <altitudeMode>clampToGround</altitudeMode>
          <coordinates>141.480000000,-35.100000000,0.000</coordinates>
        </Point>
        <description><![CDATA[Mildura]]></description>
        <name>Underbool</name>
        <styleUrl>#gv_waypoint</styleUrl>
      </Placemark>
      <Placemark>
        <Point>
          <altitudeMode>clampToGround</altitudeMode>
          <coordinates>145.420000000,-36.380000000,0.000</coordinates>
        </Point>
        <description><![CDATA[Strathbogie]]></description>
        <name>Violet Town</name>
        <styleUrl>#gv_waypoint</styleUrl>
      </Placemark>
      <Placemark>
        <Point>
          <altitudeMode>clampToGround</altitudeMode>
          <coordinates>144.580000000,-37.250000000,0.000</coordinates>
        </Point>
        <description><![CDATA[Mitchell]]></description>
        <name>Wallan</name>
        <styleUrl>#gv_waypoint</styleUrl>
      </Placemark>
      <Placemark>
        <Point>
          <altitudeMode>clampToGround</altitudeMode>
          <coordinates>147.430000000,-35.580000000,0.000</coordinates>
        </Point>
        <description><![CDATA[Towong]]></description>
        <name>Walwa</name>
        <styleUrl>#gv_waypoint</styleUrl>
      </Placemark>
      <Placemark>
        <Point>
          <altitudeMode>clampToGround</altitudeMode>
          <coordinates>146.180000000,-36.210000000,0.000</coordinates>
        </Point>
        <description><![CDATA[Wangaratta]]></description>
        <name>Wangaratta</name>
        <styleUrl>#gv_waypoint</styleUrl>
      </Placemark>
      <Placemark>
        <Point>
          <altitudeMode>clampToGround</altitudeMode>
          <coordinates>145.410000000,-37.450000000,0.000</coordinates>
        </Point>
        <description><![CDATA[Yarra Ranges]]></description>
        <name>Warburton</name>
        <styleUrl>#gv_waypoint</styleUrl>
      </Placemark>
      <Placemark>
        <Point>
          <altitudeMode>clampToGround</altitudeMode>
          <coordinates>142.230000000,-36.150000000,0.000</coordinates>
        </Point>
        <description><![CDATA[Yarriambiack]]></description>
        <name>Warracknabeal</name>
        <styleUrl>#gv_waypoint</styleUrl>
      </Placemark>
      <Placemark>
        <Point>
          <altitudeMode>clampToGround</altitudeMode>
          <coordinates>145.550000000,-38.090000000,0.000</coordinates>
        </Point>
        <description><![CDATA[Baw Baw]]></description>
        <name>Warragul</name>
        <styleUrl>#gv_waypoint</styleUrl>
      </Placemark>
      <Placemark>
        <Point>
          <altitudeMode>clampToGround</altitudeMode>
          <coordinates>145.120000000,-37.440000000,0.000</coordinates>
        </Point>
        <description><![CDATA[Manningham]]></description>
        <name>Warrandyte</name>
        <styleUrl>#gv_waypoint</styleUrl>
      </Placemark>